timeStamp,stateEstimate.roll,stateEstimate.pitch,stateEstimate.yaw,pm.vbatMV
34992,0.08643718808889389,0.7892153859138489,-0.03711741045117378,3990
35062,0.15500694513320923,0.6108649969100952,-0.03596096858382225,3990
35132,0.2757551372051239,0.30292367935180664,-0.039750803261995316,3995
35202,0.30084946751594543,0.2755410671234131,-0.03789067640900612,3990
35272,0.30004218220710754,0.27667495608329773,-0.03677348047494888,3990
35342,0.3011481761932373,0.2788763642311096,-0.03743334114551544,3990
35412,0.3192116320133209,0.24680505692958832,-0.03986957296729088,3995
35482,0.27171647548675537,0.30083519220352173,-0.040831610560417175,3995
35552,-0.0011834466131404042,0.01274368166923523,-0.0009683324606157839,3990
35622,0.31939229369163513,-0.22895582020282745,-0.0014321223134174943,3995
35692,0.4102499485015869,0.22092685103416443,-0.0018309593433514237,3995
35762,0.6174160242080688,0.023634430021047592,-0.002536175772547722,3995
35832,0.35239434242248535,0.28153860569000244,-0.0036018190439790487,3995
35902,0.8229548335075378,-0.09470386058092117,-0.003766791196539998,3990
35972,0.1325387805700302,0.5382143259048462,0.0008836585911922157,3995
36042,0.034505024552345276,0.5138987898826599,-0.00012378963583614677,3990
36112,0.39042332768440247,-0.04693075641989708,-0.0015723069664090872,3990
36182,0.2712016701698303,-0.030624166131019592,-0.002460629213601351,3990
36252,0.28756216168403625,0.07862933725118637,-0.004336342215538025,3990
36322,0.23433299362659454,0.28791722655296326,-0.004364008083939552,3990
36392,0.15928447246551514,0.36533424258232117,-0.0050032115541398525,3995
36462,0.2848528325557709,0.15010879933834076,-0.003596269991248846,3995
36532,0.38346898555755615,0.13365894556045532,-0.001695307088084519,3990
36602,0.33488866686820984,0.12736544013023376,0.002909417962655425,3161
36672,0.20857708156108856,0.3745923638343811,0.1171201542019844,3341
36742,-0.7696614265441895,0.9755041003227234,0.5079445242881775,3504
36812,-0.689935028553009,2.478426456451416,2.1757314205169678,3552
36882,0.1470528095960617,1.8094393014907837,3.498537063598633,3573
36952,0.7471809983253479,0.7237823009490967,5.088235855102539,3573
37022,0.21491527557373047,0.011728772893548012,6.100080966949463,3594
37092,-0.16424334049224854,-2.263167142868042,6.6752800941467285,3610
37162,0.5667632818222046,-1.945074439048767,6.971373081207275,3615
37232,-0.27653050422668457,-1.9817585945129395,7.052742958068848,3600
37302,0.1360204517841339,-0.7502518892288208,7.016831398010254,3578
37372,-0.3348439931869507,-0.2650969922542572,6.936394214630127,3573
37442,-0.07856585085391998,0.2292979210615158,6.8706841468811035,3573
37512,-0.268278568983078,0.48866719007492065,6.840240001678467,3563
37582,-0.06240057200193405,0.7061702609062195,6.852071285247803,3552
37652,0.02126620151102543,0.6922800540924072,6.861822605133057,3541
37722,0.002831040881574154,0.5608282685279846,6.8552446365356445,3552
37792,0.15717069804668427,0.39013999700546265,6.79490852355957,3557
37862,0.27241313457489014,0.2889415919780731,6.619181156158447,3552
37932,0.2658882439136505,0.04973480850458145,6.413149356842041,3563
38002,0.3493281602859497,-0.09070677310228348,6.145491600036621,3563
38072,0.4317103326320648,-0.10401257127523422,5.873610496520996,3557
38142,0.3017210364341736,-0.09563382714986801,5.619866847991943,3557
38212,0.2594483494758606,-0.07743397355079651,5.372859477996826,3563
38282,0.3295493423938751,0.02279072254896164,5.164204120635986,3557
38352,0.2770631015300751,0.031431298702955246,4.980901718139648,3557
38422,0.13909567892551422,-0.09776473045349121,4.84343957901001,3557
38492,0.18965435028076172,-0.08837733417749405,4.725887298583984,3552
38562,0.22240038216114044,-0.0910176932811737,4.573013782501221,3557
38632,0.25887951254844666,-0.1398761123418808,4.443891525268555,3552
38702,0.1811448037624359,-0.19219979643821716,4.3006510734558105,3563
38772,0.13987211883068085,-0.35718223452568054,4.14503288269043,3552
38842,0.09151345491409302,-0.08135061711072922,4.004886627197266,3552
38912,0.04033854976296425,0.27657586336135864,3.918452024459839,3547
38982,-0.035538144409656525,0.17940346896648407,3.8429250717163086,3547
39052,-0.04158571735024452,-0.008597178384661674,3.7252869606018066,3547
39122,-0.08156780898571014,-0.14817610383033752,3.6093389987945557,3541
39192,-0.0395016185939312,-0.2071777582168579,3.539189338684082,3541
39262,0.05501531437039375,-0.23945200443267822,3.449695587158203,3541
39332,0.10750595480203629,-0.2152605652809143,3.3464415073394775,3536
39402,0.11330534517765045,-0.05915148928761482,3.286210775375366,3536
39472,0.08085787296295166,-0.24774588644504547,3.210639238357544,3536
39542,0.08217453956604004,-0.08608588576316833,3.1622397899627686,3520
39612,-0.005994020961225033,-0.06493460386991501,3.1703360080718994,3499
39682,-0.24154041707515717,0.17818619310855865,3.332799196243286,3494
39752,-0.3690136969089508,0.39297735691070557,3.617443323135376,3494
39822,-0.22482487559318542,0.23322924971580505,3.7952873706817627,3510
39892,-0.1754295825958252,-0.09401707351207733,3.795250654220581,3526
39962,0.18898138403892517,-0.25373026728630066,3.622056722640991,3536
40032,0.41412267088890076,-0.27190351486206055,3.316409111022949,3547
40102,0.44440215826034546,-0.4895462691783905,2.916313648223877,3547
40172,0.460172176361084,-0.4441106915473938,2.526228904724121,3552
40242,0.3001437187194824,-0.41736841201782227,2.120279550552368,3552
40312,0.27994534373283386,-0.3897571265697479,1.7530677318572998,3557
40382,0.04485807567834854,-0.30632898211479187,1.4532544612884521,3541
40452,-0.04365425184369087,-0.11262694746255875,1.2490553855895996,3536
40522,-0.15449734032154083,-0.031189464032649994,1.0792062282562256,3541
40592,-0.22473648190498352,0.1500176638364792,0.9945924282073975,3536
40662,-0.25036266446113586,0.2606326937675476,0.9197017550468445,3531
40732,-0.24493777751922607,0.443229615688324,0.9234238862991333,3504
40802,-0.3616047501564026,0.5326697826385498,1.042709469795227,3483
40872,-0.4749663174152374,0.5411969423294067,1.2449631690979004,3483
40942,-0.5502793192863464,0.4908871650695801,1.5063154697418213,3499
41012,-0.14313066005706787,0.2288135588169098,1.635671615600586,3510
41082,0.12428970634937286,-0.004186416510492563,1.6301921606063843,3520
41152,0.37425991892814636,-0.17297959327697754,1.5171962976455688,3526
41222,0.5575175285339355,-0.21769492328166962,1.351503610610962,3536
41292,0.6879304051399231,-0.15458793938159943,1.1282931566238403,3536
41362,0.6449295282363892,-0.19731706380844116,0.9272670745849609,3536
41432,0.5246745347976685,-0.188370019197464,0.7290446758270264,3541
41502,0.3800026476383209,-0.09422925114631653,0.5512357354164124,3541
41572,0.15847794711589813,-0.08534082025289536,0.3662235736846924,3536
41642,-0.16946351528167725,-0.10814948379993439,0.2397977113723755,3531
41712,-0.3534012734889984,-0.040486838668584824,0.11690115928649902,3531
41782,-0.46738260984420776,0.07544892281293869,0.04936860874295235,3526
41852,-0.5124253630638123,0.18148456513881683,0.0880965143442154,3510
41922,-0.4996228814125061,0.3912893831729889,0.24856844544410706,3483
41992,-0.5507565140724182,0.5533681511878967,0.5194963812828064,3468
42062,-0.6340174674987793,0.655141294002533,0.8678168654441833,3473
42132,-0.5180662274360657,0.4686402380466461,1.2005068063735962,3494
42202,-0.17601114511489868,0.29414334893226624,1.4039099216461182,3504
42272,0.13923995196819305,0.08102302998304367,1.4359101057052612,3520
42342,0.41629675030708313,-0.026446113362908363,1.3854315280914307,3526
42412,0.4805886745452881,-0.08775348961353302,1.247702717781067,3531
42482,0.5640328526496887,-0.12489884346723557,1.0498510599136353,3531
42552,0.43656134605407715,-0.0705575942993164,0.8304893374443054,3531
42622,0.29772451519966125,-0.048745326697826385,0.6519662737846375,3531
42692,0.16144217550754547,0.0538775697350502,0.505314826965332,3526
42762,0.1333993524312973,0.07407588511705399,0.3741791546344757,3526
42832,0.029842812567949295,0.10805892944335938,0.26986151933670044,3520
42902,-0.11442679166793823,0.0569557249546051,0.19049997627735138,3520
42972,-0.35581663250923157,-0.023686179891228676,0.15029537677764893,3515
43042,-0.3438117802143097,0.03787562623620033,0.10063020884990692,3520
43112,-0.4893445670604706,0.05635335296392441,0.10092998296022415,3515
43182,-0.34625887870788574,0.049503784626722336,0.1210184171795845,3510
43252,-0.39958783984184265,0.16783621907234192,0.14251045882701874,3510
43322,-0.2562982141971588,0.21727758646011353,0.14259615540504456,3510
43392,-0.2241945117712021,0.25639957189559937,0.16188392043113708,3510
43462,-0.02635045349597931,0.18553830683231354,0.17689090967178345,3510
43532,-0.04900886118412018,0.19308127462863922,0.1593591570854187,3504
43602,0.003205668879672885,0.14998739957809448,0.14785724878311157,3504
43672,-0.11124313622713089,0.18381434679031372,0.1064029410481453,3504
43742,-0.1500394642353058,0.1782509684562683,0.1031855046749115,3510
43812,-0.1459786295890808,0.10344206541776657,0.11460037529468536,3504
43882,-0.20605146884918213,0.19767938554286957,0.060988977551460266,3504
43952,-0.1774032562971115,0.15971140563488007,0.012861791998147964,3510
44022,-0.21777193248271942,0.05855844169855118,-0.038319166749715805,3504
44092,-0.1232774630188942,0.03468739986419678,-0.10514715313911438,3499
44162,-0.025228898972272873,-0.037647053599357605,-0.15919283032417297,3499
44232,0.03414224088191986,-0.015566150657832623,-0.17493657767772675,3499
44302,0.04300086200237274,-0.1923963576555252,-0.1952625811100006,3504
44372,0.1558537632226944,-0.06545507162809372,-0.22764389216899872,3510
44442,0.20763158798217773,-0.09229158610105515,-0.31099170446395874,3504
44512,0.2916508913040161,-0.07149568200111389,-0.34694036841392517,3504
44582,0.23979085683822632,-0.20412060618400574,-0.36266791820526123,3504
44652,0.21315093338489532,-0.2793092727661133,-0.3990176320075989,3510
44722,0.12624312937259674,-0.27105361223220825,-0.42267394065856934,3504
44792,0.2368360161781311,-0.354502409696579,-0.43859460949897766,3504
44862,0.22793199121952057,-0.33115747570991516,-0.47360774874687195,3504
44932,0.1933443248271942,-0.23240181803703308,-0.4990215003490448,3499
45002,0.19681961834430695,-0.15033113956451416,-0.5444916486740112,3499
45072,0.0324779748916626,0.04272306337952614,-0.5708503723144531,3499
45142,0.022183328866958618,-0.012385224923491478,-0.559911847114563,3499
45212,-0.12702754139900208,0.0585976168513298,-0.5578016042709351,3504
45282,0.12988361716270447,-0.06762883067131042,-0.5608410239219666,3494
45352,0.10017873346805573,-0.14487816393375397,-0.5375926494598389,3499
45422,0.10659774392843246,-0.14615832269191742,-0.5402160882949829,3504
45492,0.13379919528961182,-0.1262275129556656,-0.5490438342094421,3504
45562,0.03896345943212509,-0.07910451292991638,-0.5764250159263611,3499
45632,0.027660496532917023,-0.05952123925089836,-0.5841227769851685,3499
45702,-0.026428332552313805,0.05108782649040222,-0.6012111306190491,3499
45772,0.005895157810300589,-0.11938019841909409,-0.617857813835144,3499
45842,-0.08684609085321426,-0.058867957442998886,-0.5901535749435425,3499
45912,-0.11469961702823639,-0.09397421777248383,-0.5821526646614075,3494
45982,-0.049366679042577744,-0.0417262464761734,-0.597687840461731,3489
46052,0.012384473346173763,0.13597266376018524,-0.5360904932022095,3468
46122,-0.21543478965759277,0.16937755048274994,-0.391066312789917,3452
46192,-0.30061736702919006,0.3728798031806946,-0.11590077728033066,3446
46262,-0.37637290358543396,0.3665849566459656,0.22335591912269592,3452
46332,-0.243256077170372,0.28871914744377136,0.4929471015930176,3473
46402,-0.12324929237365723,0.054109737277030945,0.6376339197158813,3489
46472,0.08587684482336044,-0.14800125360488892,0.6454783082008362,3499
46542,0.2645750343799591,-0.2588011920452118,0.5521093010902405,3504
46612,0.3887280225753784,-0.2512434720993042,0.3954227864742279,3515
46682,0.2864837050437927,-0.23719340562820435,0.2105901688337326,3515
46752,0.19315162301063538,-0.09030353277921677,0.009736091829836369,3510
46822,-0.01933956891298294,-0.0731005072593689,-0.17224650084972382,3515
46892,-0.13374367356300354,0.09297844022512436,-0.30508479475975037,3510
46962,-0.23900529742240906,0.1135983094573021,-0.41516727209091187,3510
47032,-0.1622876673936844,0.226712167263031,-0.4739556610584259,3504
47102,-0.22864297032356262,0.24515372514724731,-0.5094543099403381,3494
47172,-0.14579522609710693,0.29340654611587524,-0.5212885737419128,3494
47242,-0.20037072896957397,0.37253376841545105,-0.5014522075653076,3489
47312,-0.1422574371099472,0.31193849444389343,-0.46887773275375366,3494
47382,-0.16780653595924377,0.32206323742866516,-0.4336245357990265,3494
47452,-0.1376197189092636,0.15126676857471466,-0.44803929328918457,3494
47522,-0.09497211128473282,0.11414138227701187,-0.4409669041633606,3489
47592,-0.11800853163003922,-0.02019430324435234,-0.425344854593277,3483
47662,-0.16205541789531708,-0.02360258437693119,-0.4212135076522827,3483
47732,-0.20091593265533447,-0.0807533785700798,-0.4133359491825104,3489
47802,-0.17348557710647583,-0.13484227657318115,-0.3914150595664978,3494
47872,-0.07006993144750595,-0.0914766937494278,-0.4047951102256775,3489
47942,-0.047244638204574585,-0.006327779032289982,-0.40187692642211914,3489
48012,-0.0002893718774430454,-0.10138459503650665,-0.4058232605457306,3489
48082,-0.04477009177207947,-0.1300639659166336,-0.41153305768966675,3489
48152,0.07606008648872375,-0.05391757935285568,-0.41201093792915344,3489
48222,0.0810537189245224,-0.12606583535671234,-0.4174516201019287,3489
48292,0.04694392532110214,-0.07885756343603134,-0.4067407548427582,3489
48362,-0.009076603688299656,-0.0788574367761612,-0.3860948085784912,3483
48432,-0.1283307522535324,-0.07865457236766815,-0.3689931333065033,3483
48502,-0.12294548004865646,-0.1023317277431488,-0.3345494866371155,3483
48572,-0.08952068537473679,0.05304549261927605,-0.28868064284324646,3478
48642,-0.10098055750131607,0.13686391711235046,-0.2588023543357849,3489
48712,0.04390402510762215,-0.0848250463604927,-0.22828540205955505,3489
48782,0.1056831032037735,0.007874267175793648,-0.21256062388420105,3483
48852,0.12150337547063828,-0.049773313105106354,-0.19613441824913025,3489
48922,0.1669996827840805,0.028080087155103683,-0.18256324529647827,3489
48992,0.12653766572475433,0.06472784280776978,-0.1374005228281021,3483
49062,0.06431432068347931,0.10129265487194061,-0.09150924533605576,3483
49132,0.00920691154897213,0.0642351284623146,-0.04786045849323273,3483
49202,-0.022977633401751518,0.08617474138736725,-0.02686150372028351,3483
49272,-0.02565416321158409,0.048094939440488815,-0.01304654311388731,3483
49342,0.03389720246195793,0.028025051578879356,-3.279539669165388e-05,3483
49412,-0.06636059284210205,-0.09359169751405716,-0.0028638869989663363,3483
49482,-0.07861264050006866,-0.11086531728506088,-0.01943124271929264,3483
49552,-0.10437294095754623,-0.0712704062461853,-0.06566724181175232,3489
49622,0.014049104414880276,-0.14445677399635315,-0.12196484208106995,3478
49692,0.04854188114404678,-0.03965745493769646,-0.12970587611198425,3473
49762,0.07959375530481339,-0.005969970021396875,-0.11845565587282181,3478
49832,0.1325484663248062,0.03726022690534592,-0.09690939635038376,3478
49902,0.09379886835813522,0.04400523379445076,-0.11632925271987915,3483
49972,0.052985697984695435,0.049846895039081573,-0.11617884039878845,3483
50042,0.1424453854560852,-0.007264649495482445,-0.13179752230644226,3489
50112,0.07350113242864609,0.06155427545309067,-0.17195190489292145,3478
50182,0.05476594716310501,0.16279993951320648,-0.2145521193742752,3478
50252,-0.019022835418581963,0.21158991754055023,-0.26755452156066895,3483
50322,-0.007508823648095131,0.14807721972465515,-0.3146463930606842,3478
50392,-0.08919737488031387,0.15280605852603912,-0.30563148856163025,3478
50462,-0.16520042717456818,0.10941725969314575,-0.2753557860851288,3478
50532,-0.06809622049331665,0.1519489586353302,-0.2249978631734848,3473
50602,-0.02862870693206787,0.10656718164682388,-0.1608281433582306,3452
50672,-0.09934238344430923,0.2662883698940277,0.013311019167304039,3431
50742,-0.28563520312309265,0.5316593050956726,0.39801621437072754,3425
50812,-0.29180908203125,0.49383261799812317,0.8046854734420776,3436
50882,-0.14919494092464447,0.08666394650936127,1.0749962329864502,3457
50952,0.036165423691272736,0.15903262794017792,1.1667654514312744,3468
51022,0.2381206899881363,0.08724882453680038,1.0779021978378296,3489
51092,0.42606958746910095,-0.05046747624874115,0.872527539730072,3494
51302,0.3480403423309326,0.1812746673822403,0.1946205198764801,3494
51372,0.3894422650337219,0.05400610342621803,0.010604223236441612,3494
51442,0.2431221902370453,0.08374793827533722,-0.15399913489818573,3489
51512,0.3284134864807129,-0.031031649559736252,-0.2886991798877716,3489
51582,0.1839023232460022,0.0025850192178040743,-0.35917842388153076,3489
51652,0.19160869717597961,0.029898852109909058,-0.42365562915802,3489
51722,0.07745091617107391,0.1589861661195755,-0.44752517342567444,3483
51792,0.10890793055295944,0.12904267013072968,-0.4517001211643219,3483
51862,0.06424450874328613,0.10563472658395767,-0.4650031626224518,3483
51932,0.015127542428672314,0.06308600306510925,-0.5003269910812378,3483
52002,0.019632617011666298,0.01585187017917633,-0.4990779459476471,3478
52072,0.005165142938494682,0.024434179067611694,-0.4873006343841553,3478
52142,-0.04473133012652397,0.03310257941484451,-0.4325178861618042,3478
52212,-0.03893289715051651,0.06309063732624054,-0.36981308460235596,3473
52282,-0.2035316824913025,-0.0232226699590683,-0.27813059091567993,3473
52352,-0.22087928652763367,-0.1236686110496521,-0.1473863422870636,3468
52422,-0.26684319972991943,-0.13497653603553772,-0.06176046282052994,3468
52492,-0.2175109088420868,-0.10263938456773758,-0.000976509996689856,3473
52562,-0.27932941913604736,-0.0935593992471695,0.04225734621286392,3473
52632,-0.22736293077468872,-0.1979772299528122,0.03748445585370064,3478
52702,-0.07296817004680634,0.027898192405700684,-0.005312691908329725,3478
52772,-0.019898468628525734,0.18530994653701782,-0.03691767901182175,3473
52842,-0.013336468487977982,0.24142083525657654,-0.11172459274530411,3473
52912,-0.06538036465644836,0.31276655197143555,-0.19289185106754303,3478
52982,-0.020428789779543877,0.26391538977622986,-0.2901029884815216,3478
53052,0.11218436807394028,0.13187961280345917,-0.32724088430404663,3473
53122,0.08927489072084427,0.14348851144313812,-0.30062058568000793,3468
53192,0.06277821213006973,0.04674224182963371,-0.24703338742256165,3473
53262,0.06088683009147644,-0.06856290251016617,-0.17579343914985657,3478
53332,0.026551060378551483,-0.12807169556617737,-0.09318291395902634,3473
53402,0.0009188047260977328,-0.17315825819969177,-0.03529277816414833,3468
53472,-0.09696245193481445,-0.17737388610839844,0.007373345550149679,3473
53542,-0.09162592142820358,-0.10577601194381714,0.028453418985009193,3473
53612,-0.15716789662837982,-0.2071535587310791,0.06962330639362335,3478
53682,0.019790280610322952,-0.20702466368675232,0.12466596812009811,3478
53752,0.009040137752890587,-0.25777143239974976,0.1575891226530075,3473
53822,0.0236318688839674,-0.1484253853559494,0.17525944113731384,3468
53892,-0.09302633255720139,-0.1931333839893341,0.19727317988872528,3462
53962,-0.15257656574249268,0.02843976579606533,0.2857319414615631,3446
54032,-0.2679716944694519,0.15383759140968323,0.49276813864707947,3425
54102,-0.3743489682674408,0.2863888144493103,0.7944188714027405,3415
54172,-0.48650825023651123,0.4917706549167633,1.2025065422058105,3415
54242,-0.4665098488330841,0.2627851366996765,1.5369430780410767,3436
54312,-0.1419592797756195,0.018888501450419426,1.6373525857925415,3452
54382,0.10710767656564713,-0.24114318192005157,1.5339441299438477,3473
54452,0.422722190618515,-0.42051422595977783,1.2774169445037842,3478
54522,0.48304465413093567,-0.46796914935112,0.9685528874397278,3483
54592,0.43601274490356445,-0.4578310251235962,0.6535752415657043,3489
54662,0.49425768852233887,-0.37139612436294556,0.3992691934108734,3494
54732,0.4759388267993927,0.0207403302192688,0.194802924990654,3483
54802,0.3316136300563812,0.27527284622192383,0.08490248024463654,3457
54872,0.12122265994548798,0.41946232318878174,0.13801956176757812,3436
54942,-0.23259373009204865,0.5262230634689331,0.3315761983394623,3436
55012,-0.3351317048072815,0.4785520136356354,0.5340348482131958,3441
55082,-0.3360588252544403,0.43361344933509827,0.7439988255500793,3452
55152,-0.3535172641277313,0.34718623757362366,0.8038088083267212,3473
55222,-0.15832041203975677,0.05287182331085205,0.7328842878341675,3489
55292,-0.3247796893119812,0.11848831176757812,0.6587816476821899,3489
55362,-0.2227378934621811,0.23111577332019806,0.5348995923995972,3494
55432,-0.16466717422008514,0.1566765010356903,0.39876624941825867,3499
55502,-0.07890195399522781,0.22327351570129395,0.25551939010620117,3489
55572,0.007634539622813463,0.11021529138088226,0.09747264534235,3483
55642,0.07248605042695999,0.11798534542322159,0.011291914619505405,3462
55712,-0.054968737065792084,0.6382246613502502,0.016777997836470604,3441
55782,-0.17535069584846497,0.25874677300453186,0.14524058997631073,3425
55852,-0.10923279821872711,0.3472931683063507,0.3573399782180786,3436
55922,-0.14087077975273132,0.1526649445295334,0.5552230477333069,3446
55992,0.11104918271303177,-0.13172675669193268,0.6380667686462402,3462
56062,0.23602735996246338,-0.29184186458587646,0.5877650380134583,3483
56132,0.35329779982566833,-0.4861377775669098,0.47202640771865845,3478
56202,0.36987751722335815,-0.4931524395942688,0.36971721053123474,3483
56272,0.34104710817337036,-0.5438358783721924,0.24567441642284393,3489
56342,0.40906280279159546,-0.5129314064979553,0.1401861160993576,3489
56412,0.3667478859424591,-0.4119260907173157,0.05787063017487526,3478
56482,0.35362762212753296,-0.35452261567115784,-0.016822321340441704,3483
56552,0.3113563358783722,-0.2865109443664551,-0.06612102687358856,3473
56622,0.02330036461353302,-0.1549028903245926,-0.019861020147800446,3452
56692,-0.15608596801757812,0.03347848355770111,0.13575871288776398,3441
56762,-0.4079422354698181,0.025352856144309044,0.3903041183948517,3441
56832,-0.38303089141845703,0.1012786403298378,0.6207074522972107,3441
56902,-0.38364797830581665,-0.12034972757101059,0.8324378132820129,3452
56972,-0.2905054986476898,-0.1349593847990036,0.9583775997161865,3462
57042,-0.2520335018634796,-0.09713232517242432,0.9720720648765564,3468
57112,-0.15508179366588593,-0.25066831707954407,0.9068354964256287,3468
57182,-0.09634201973676682,-0.22541344165802002,0.8038842678070068,3462
57252,0.05550680682063103,-0.33978307247161865,0.6604218482971191,3478
57322,0.15499752759933472,-0.3282564580440521,0.4662149250507355,3483
57392,0.158131405711174,-0.3028506338596344,0.27749893069267273,3483
57462,0.17558906972408295,-0.19747866690158844,0.09310608357191086,3489
57532,0.03247668221592903,-0.14822044968605042,-0.0843842402100563,3489
57602,-0.0037827652413398027,-0.052894122898578644,-0.23427756130695343,3473
57672,-0.16776274144649506,-0.0319041907787323,-0.30153688788414,3441
57742,-0.25959348678588867,0.2320408821105957,-0.2192324846982956,3420
57812,-0.5327368974685669,0.23195120692253113,-0.0016217699740082026,3425
57882,-0.5442597270011902,0.26434147357940674,0.25290927290916443,3431
57952,-0.38676828145980835,0.04842883720993996,0.39238062500953674,3452
58022,-0.011134816333651543,-0.29626262187957764,0.37393274903297424,3468
58092,0.2344616800546646,-0.44717806577682495,0.2419324666261673,3473
58162,0.4173295199871063,-0.410783588886261,0.04544520005583763,3468
58232,0.18871542811393738,-0.3274489939212799,-0.1218285858631134,3473
58302,0.1458461880683899,-0.3036121726036072,-0.29016995429992676,3483
58372,0.04301361367106438,-0.1825178563594818,-0.48495247960090637,3489
58442,0.05747387185692787,-0.11738155782222748,-0.6859384775161743,3499
58512,0.02186141535639763,0.045040130615234375,-0.8877436518669128,3494
58582,-0.0012835962697863579,0.13644684851169586,-1.0393211841583252,3483
58652,-0.1087893694639206,0.25971269607543945,-1.1527117490768433,3473
58722,-0.037967827171087265,0.2375158965587616,-1.1817588806152344,3473
58792,-0.025637222453951836,0.2388218492269516,-1.177271842956543,3473
58862,-0.09007664769887924,0.22161421179771423,-1.1766057014465332,3478
58932,0.007657421287149191,0.40180468559265137,-1.1316251754760742,3468
59002,-0.013065336272120476,0.5771250128746033,-1.0497230291366577,3462
59072,0.031966838985681534,0.7194427847862244,-0.9740923047065735,3462
59142,0.03948109969496727,0.6241133809089661,-0.9336704611778259,3473
59212,0.18811911344528198,0.4259168207645416,-0.9479261636734009,3468
59282,0.2461848109960556,0.3918639123439789,-1.0296484231948853,3457
59352,0.2546844184398651,0.17541633546352386,-1.1271501779556274,3462
59422,0.27410075068473816,0.2697553038597107,-1.1883783340454102,3462
59492,0.17447325587272644,0.13958562910556793,-1.234557032585144,3446
59562,0.28231021761894226,0.3655620217323303,-1.294405221939087,3457
59632,-0.06307458132505417,0.039510488510131836,-1.3457554578781128,3468
59702,0.11266593635082245,0.030603067949414253,-1.4128153324127197,3468
59772,-0.1148749440908432,-0.12918847799301147,-1.499157190322876,3468
59842,0.12092279642820358,-0.06956108659505844,-1.6287567615509033,3473
59912,-0.02727469801902771,-0.10024957358837128,-1.7054582834243774,3473
59982,0.07687930762767792,-0.14605236053466797,-1.727015495300293,3468
60052,-0.0003185070236213505,-0.3131515681743622,-1.7428113222122192,3473
60122,-0.025881603360176086,-0.21159446239471436,-1.7327066659927368,3462
60192,-0.10066257417201996,-0.24647651612758636,-1.707379698753357,3473
60262,-0.33523476123809814,-0.2026216983795166,-1.7106539011001587,3473
60332,-0.2615559995174408,-0.24683795869350433,-1.7589118480682373,3468
60402,-0.2698441743850708,-0.14995285868644714,-1.7840187549591064,3457
60472,-0.044897690415382385,-0.27896392345428467,-1.8077517747879028,3462
60542,-0.10244832187891006,-0.06214702129364014,-1.7952498197555542,3468
60612,0.009231410920619965,-0.1964455395936966,-1.8431812524795532,3468
60682,-0.044284846633672714,-0.004090361297130585,-1.8612093925476074,3457
60752,-0.09752481430768967,-0.07935429364442825,-1.8663939237594604,3452
60822,-0.23663362860679626,0.06342528015375137,-1.8317228555679321,3462
60892,-0.2165069580078125,-0.1397695392370224,-1.7999112606048584,3468
60962,-0.2540768086910248,-0.09734860807657242,-1.7831804752349854,3473
61032,-0.27208411693573,-0.18543890118598938,-1.754786491394043,3468
61102,-0.2544764578342438,-0.11149431765079498,-1.77089524269104,3468
61172,-0.1633884608745575,-0.0645146444439888,-1.7726763486862183,3457
61242,-0.20916637778282166,0.012266483157873154,-1.7884575128555298,3452
61312,-0.15014731884002686,-0.035715412348508835,-1.7793375253677368,3462
61382,-0.20907381176948547,-0.11769119650125504,-1.7856395244598389,3468
61452,-0.1944371610879898,-0.3316618800163269,-1.819234013557434,3462
61522,0.15312498807907104,0.3537726104259491,-1.8629056215286255,3462
61592,0.21385599672794342,0.5184150338172913,-1.943247675895691,3462
61662,0.4173172116279602,0.5863127112388611,-2.022765636444092,3462
61732,0.24760344624519348,0.5831725597381592,-2.1141178607940674,3468
61802,0.08589613437652588,0.44888386130332947,-2.210414171218872,3462
61872,0.044533900916576385,0.36228853464126587,-2.298037528991699,3457
61942,-0.09469380229711533,0.35635021328926086,-2.3249924182891846,3457
62012,-0.21100418269634247,0.28695300221443176,-2.288757801055908,3452
62082,-0.2580929696559906,0.16504350304603577,-2.2095112800598145,3457
62152,-0.27418187260627747,0.1061815395951271,-2.111415386199951,3468
62222,-0.23627538979053497,-0.033014386892318726,-1.982520580291748,3468
62292,-0.19881634414196014,-0.026424575597047806,-1.8335174322128296,3462
62362,-0.2432834804058075,-0.05787450447678566,-1.630409598350525,3457
62432,-0.21295660734176636,-0.11827219277620316,-1.4628475904464722,3462
62502,-0.18468889594078064,-0.17663343250751495,-1.3301070928573608,3468
62572,-0.11338046938180923,-0.1976470947265625,-1.220066785812378,3462
62642,-0.031510889530181885,-0.23726040124893188,-1.1787749528884888,3473
62712,-0.15882360935211182,-0.0049455780535936356,-1.1785832643508911,3462
62782,-0.019166752696037292,-0.13092820346355438,-1.2162675857543945,3457
62852,0.009058479219675064,-0.11359091848134995,-1.253159999847412,3462
62922,0.06832557916641235,-0.13525408506393433,-1.2624567747116089,3462
62992,0.09348516911268234,-0.04301157221198082,-1.2501963376998901,3468
63062,0.11293821036815643,-0.06251908093690872,-1.2503846883773804,3457
63132,0.22138842940330505,-0.009691298007965088,-1.276779294013977,3452
63202,-0.13201288878917694,0.1229933425784111,-1.2955998182296753,3452
63272,-0.17625251412391663,0.10046020895242691,-1.306304693222046,3452
63342,-0.4057854115962982,0.03148293122649193,-1.291844367980957,3457
63412,-0.3753785490989685,0.07945643365383148,-1.2576508522033691,3457
63482,-0.3813525140285492,0.008889501914381981,-1.2517198324203491,3462
63552,-0.3074747920036316,0.04238523170351982,-1.260087490081787,3457
63622,-0.6089560985565186,0.06796019524335861,-1.2180613279342651,3457
63692,-0.5313495993614197,0.12295754998922348,-1.1842881441116333,3457
63762,-0.6606025695800781,0.0928269624710083,-1.1945420503616333,3462
63832,-0.5167002081871033,0.06112351268529892,-1.2110350131988525,3468
63902,-0.3986361622810364,0.14180351793766022,-1.2257394790649414,3457
63972,-0.2522537112236023,0.11855439096689224,-1.2837570905685425,3457
64042,-0.06684417277574539,0.14492161571979523,-1.325588583946228,3462
64112,0.023716792464256287,0.04822969809174538,-1.368280053138733,3473
64182,0.13886360824108124,0.08390120416879654,-1.3993523120880127,3462
64252,0.22801312804222107,0.029239971190690994,-1.371000051498413,3462
64322,0.20718933641910553,0.1783062219619751,-1.3029565811157227,3452
64392,0.14899715781211853,0.1283034086227417,-1.2588660717010498,3457
64462,0.21750187873840332,0.17991043627262115,-1.269919753074646,3446
64532,0.23023784160614014,0.18541692197322845,-1.3464083671569824,3457
64602,0.2784993648529053,0.14323878288269043,-1.4273583889007568,3457
64672,0.37160933017730713,0.13403397798538208,-1.5059434175491333,3457
64742,0.37482330203056335,0.05445462465286255,-1.5503180027008057,3462
64812,0.3319304585456848,-0.04609844833612442,-1.59969961643219,3462
64882,0.5187332034111023,-0.010871022008359432,-1.6056137084960938,3468
64952,0.5023015141487122,-0.0031904985662549734,-1.6148512363433838,3462
65022,0.43242722749710083,0.06320836395025253,-1.6243889331817627,3457
65092,0.31147393584251404,0.09579608589410782,-1.6153708696365356,3462
65162,0.4513779878616333,-0.30074089765548706,-1.629333734512329,3457
65232,0.28111007809638977,-0.1738414317369461,-1.5875234603881836,3446
65302,0.2879878282546997,-0.392881840467453,-1.5636017322540283,3446
65372,0.10306647419929504,0.0036142223980277777,-1.4959827661514282,3457
65442,0.04951031878590584,0.10337172448635101,-1.421755075454712,3457
65512,0.005054858513176441,0.051076456904411316,-1.3937098979949951,3468
65582,-0.006596251856535673,0.10554970055818558,-1.377522349357605,3462
65652,-0.04325990751385689,0.18453317880630493,-1.3577021360397339,3457
65722,-0.08603332936763763,0.034523818641901016,-1.3912148475646973,3452
65792,-0.11252966523170471,-0.0026838378980755806,-1.4256434440612793,3452
65862,-0.11762870103120804,-0.17732134461402893,-1.4144201278686523,3457
65932,-0.09676504135131836,0.13596932590007782,-1.3653957843780518,3457
66002,-0.11882089823484421,0.1858343631029129,-1.2850923538208008,3452
66072,-0.06582481414079666,0.21472765505313873,-1.164325475692749,3462
66142,-0.006522149313241243,0.2350970208644867,-1.073504090309143,3478
66212,0.18095675110816956,-0.01859932392835617,-1.0639100074768066,3494
66282,0.0929245576262474,0.06131855398416519,-1.0520395040512085,3515
66352,0.17052027583122253,-0.1560859978199005,-1.1284379959106445,3515
66422,0.024426819756627083,0.048369962722063065,-1.283237099647522,3478
66492,-0.03135916590690613,0.22568288445472717,-1.416841983795166,3452
66562,-0.034561384469270706,0.03472209349274635,-1.557218074798584,3441
66632,-0.2672162353992462,0.3317001760005951,-1.656406044960022,3441
66702,-0.2158399522304535,0.09725038707256317,-1.7383044958114624,3441
66772,-0.31263190507888794,0.14858582615852356,-1.8440982103347778,3436
66842,-0.23237080872058868,0.20747224986553192,-2.0278971195220947,3431
66912,-0.21383917331695557,-0.03180563822388649,-2.2310335636138916,3431
66982,-0.1593533605337143,-0.013963344506919384,-2.416046619415283,3436
67052,-0.19354476034641266,-0.1559567004442215,-2.507197856903076,3441
67122,-0.1439463496208191,-0.2131405621767044,-2.6219000816345215,3441
67192,-0.12673647701740265,-0.17381806671619415,-2.699483633041382,3446
67262,-0.09339150041341782,-0.32939180731773376,-2.7008204460144043,3446
67332,0.02819109335541725,-0.27838391065597534,-2.643573760986328,3452
67402,0.011115603148937225,-0.296667218208313,-2.559293746948242,3452
67472,0.0581466443836689,-0.30790895223617554,-2.4348819255828857,3457
67542,0.13463303446769714,-0.43962758779525757,-2.3170583248138428,3457
67612,0.08414106070995331,-0.2800266742706299,-2.198686122894287,3462
67682,0.26305288076400757,-0.4346347451210022,-2.1170735359191895,3452
67752,0.3802131712436676,-0.3881989121437073,-2.0742647647857666,3473
67822,0.32689571380615234,-0.44756650924682617,-2.068768262863159,3499
67892,0.44822368025779724,-0.41710591316223145,-2.076312303543091,3510
67962,0.39086291193962097,-0.3561331033706665,-2.1083338260650635,3510
68032,0.3715690076351166,-0.26725420355796814,-2.232935667037964,3494
68102,0.3615913689136505,-0.10961215198040009,-2.369368553161621,3462
68172,0.27337029576301575,0.010011402890086174,-2.4994635581970215,3441
68242,0.17150439321994781,0.19423380494117737,-2.5590097904205322,3436
68312,-0.021200748160481453,0.12784342467784882,-2.619396448135376,3436
68382,-0.05957866460084915,0.16625277698040009,-2.6588497161865234,3425
68452,-0.10655169934034348,0.12480568140745163,-2.62375807762146,3420
68522,-0.11227641999721527,0.09230624884366989,-2.4783263206481934,3425
68592,-0.004912911914288998,0.017846237868070602,-2.30953311920166,3431
68662,0.16312366724014282,-0.22435152530670166,-2.2161190509796143,3441
68732,-0.02251977100968361,-0.007942757569253445,-2.1111106872558594,3446
68802,0.23149964213371277,-0.3332555890083313,-2.1273505687713623,3452
68872,0.2032698541879654,-0.06935649365186691,-2.236830711364746,3452
68942,0.16622181236743927,-0.083973228931427,-2.3612523078918457,3446
69012,0.27962836623191833,-0.23980247974395752,-2.445955991744995,3446
69082,0.27437204122543335,-0.2026296705007553,-2.461348295211792,3446
69152,0.24574927985668182,-0.23898304998874664,-2.512511730194092,3462
69222,-0.089069664478302,-0.27346575260162354,-2.556384801864624,3473
69292,-0.07702665776014328,-0.3830937445163727,-2.6044657230377197,3499
69362,-0.0508982315659523,-0.3655431866645813,-2.6799046993255615,3494
69432,0.05638308823108673,-0.1972564309835434,-2.734844207763672,3478
69502,0.06955482810735703,0.0533304437994957,-2.738161325454712,3468
69572,0.09230531007051468,0.0503971092402935,-2.7114057540893555,3452
69642,0.24879154562950134,0.18613915145397186,-2.6157639026641846,3446
69712,0.03859684243798256,0.19411280751228333,-2.441342353820801,3446
69782,-0.03194168210029602,0.13523007929325104,-2.197770833969116,3436
69852,-0.17563636600971222,0.25095000863075256,-1.9209784269332886,3431
69922,-0.3471366763114929,0.216205894947052,-1.5710803270339966,3431
69992,-0.3084655702114105,0.10907556861639023,-1.2135999202728271,3431
70062,-0.31831344962120056,-0.12568826973438263,-0.9070825576782227,3436
70132,-0.42070308327674866,-0.24086996912956238,-0.679872453212738,3441
70202,-0.3351621925830841,-0.29199594259262085,-0.4792465567588806,3441
70272,-0.4578576982021332,-0.21397662162780762,-0.34578752517700195,3452
70342,-0.23536817729473114,-0.303042471408844,-0.31304168701171875,3452
70412,-0.1454949676990509,-0.37157878279685974,-0.33451998233795166,3457
70482,-0.0954136848449707,-0.32445114850997925,-0.4769520163536072,3452
70552,0.10561711341142654,-0.25933924317359924,-0.723345935344696,3446
70622,0.15889576077461243,-0.1562327891588211,-0.9801901578903198,3452
70692,0.14466193318367004,-0.3644368648529053,-1.2173900604248047,3457
70762,0.013747056014835835,-0.24338369071483612,-1.464814305305481,3478
70832,0.18610598146915436,-0.4978983998298645,-1.6965173482894897,3494
70902,0.21412481367588043,-0.42149025201797485,-1.8506689071655273,3499
70972,0.21795397996902466,-0.3305470049381256,-1.905710220336914,3473
71042,0.18501825630664825,-0.00967987347394228,-1.8788142204284668,3457
71112,0.12632489204406738,0.28142866492271423,-1.7471306324005127,3441
71182,0.13000071048736572,0.4710615277290344,-1.5020134449005127,3441
71252,0.09561070054769516,0.5519276261329651,-1.1565603017807007,3436
71322,0.09339410066604614,0.6269671320915222,-0.8120503425598145,3431
71392,0.07971249520778656,0.528153657913208,-0.5011156797409058,3431
71462,-0.022270608693361282,0.5644447207450867,-0.25230029225349426,3431
71532,0.07838302850723267,0.1822795867919922,-0.012708918191492558,3436
71602,-0.02837400510907173,-0.032527949661016464,0.29102540016174316,3431
71672,-0.07536201179027557,-0.07108693569898605,0.5494229197502136,3431
71742,-0.20493239164352417,-0.27278175950050354,0.7760127782821655,3431
71812,-0.383323073387146,-0.48824045062065125,0.9331498742103577,3431
71882,-0.18112970888614655,-0.5722666382789612,0.9484562277793884,3436
71952,-0.16154097020626068,-0.5430952310562134,0.954723060131073,3441
72022,0.020635049790143967,-0.7793830037117004,0.986990749835968,3452
72092,0.123533234000206,-0.7780983448028564,0.991428792476654,3478
72162,0.18842433393001556,-0.7599195241928101,1.0268030166625977,3494
72232,0.158039852976799,-0.7322998642921448,1.029458999633789,3504
72302,0.17988207936286926,-0.47091424465179443,0.9528509378433228,3478
72372,0.12858276069164276,-0.42486152052879333,0.7397211790084839,3462
72442,0.1446433812379837,-0.018739478662610054,0.4454670250415802,3446
72512,0.09730986505746841,0.0779895931482315,0.0940786674618721,3436
72582,0.0928342416882515,0.33631888031959534,-0.3409951627254486,3431
72652,0.08208353817462921,0.4070363938808441,-0.7815930247306824,3436
72722,0.15788646042346954,0.3564854562282562,-1.193324089050293,3436
72792,-0.0007422649068757892,0.4585980772972107,-1.5606882572174072,3436
72862,0.033824723213911057,0.251915842294693,-1.8158752918243408,3436
72932,-0.08705171197652817,0.16396266222000122,-1.9187078475952148,3436
73002,0.020288240164518356,0.09104802459478378,-1.9048446416854858,3441
73072,0.0007195969228632748,0.134015753865242,-1.808357834815979,3436
73142,0.04910469800233841,0.030098190531134605,-1.612420916557312,3436
73212,0.09705312550067902,0.0927823856472969,-1.3266501426696777,3446
73282,0.06491867452859879,0.06646529585123062,-1.0377562046051025,3452
73352,0.10872715711593628,0.00826733373105526,-0.7428532838821411,3462
73422,0.10537035018205643,-0.1935063749551773,-0.6459165215492249,3483
73492,0.1981821358203888,-0.4050161838531494,-0.5966845750808716,3499
73562,0.09208410233259201,-0.40514764189720154,-0.5779998898506165,3504
73632,0.08016818016767502,-0.164565309882164,-0.6115624904632568,3483
73702,-0.1803494542837143,-0.15321391820907593,-0.6331241130828857,3462
73772,-0.25058117508888245,0.31707242131233215,-0.6268332004547119,3431
73842,-0.38198044896125793,0.08102001994848251,-0.5972678065299988,3425
73912,-0.32273542881011963,-0.12354409694671631,-0.47708746790885925,3425
73982,-0.5511592626571655,-0.06039295718073845,-0.2865488827228546,3425
74052,-0.47052183747291565,-0.47680673003196716,-0.019086945801973343,3425
74122,-0.4917601943016052,-0.15828658640384674,0.29236048460006714,3425
74192,-0.44828498363494873,-0.4102177917957306,0.6271935701370239,3420
74262,-0.2726268172264099,-0.10838243365287781,0.9453094601631165,3431
74332,-0.3170475959777832,-0.06302148103713989,1.2180261611938477,3436
74402,-0.14195683598518372,-0.1313425898551941,1.495165467262268,3441
74472,0.053053323179483414,0.1373881846666336,1.7904529571533203,3441
74542,0.0750950276851654,0.19363096356391907,2.1380600929260254,3441
74612,0.17804056406021118,0.1625884473323822,2.373152494430542,3457
74682,0.21353156864643097,-0.2307443469762802,2.421281099319458,3473
74752,0.43388882279396057,-0.23381344974040985,2.3025901317596436,3489
74822,0.48670846223831177,-0.38757994771003723,2.114423990249634,3510
74892,0.40925705432891846,-0.47104209661483765,2.2771894931793213,3510
74962,0.11396773159503937,-0.41824978590011597,2.8783345222473145,3499
75032,0.23048679530620575,-0.4895710051059723,3.3757455348968506,3494
75102,-0.0023595045786350965,-0.33125075697898865,3.656728506088257,3478
75172,-0.17325592041015625,-0.19832974672317505,3.7753219604492188,3452
75242,0.4018377959728241,0.03351316228508949,3.644408702850342,3436
75312,0.23249348998069763,0.5282763838768005,3.2567317485809326,3420
75382,0.5313728451728821,0.6756725907325745,2.6996240615844727,3409
75452,0.4698401391506195,0.9320865273475647,2.113875150680542,3404
75522,0.6210851669311523,0.6669564843177795,1.7450883388519287,3399
75592,0.9231890439987183,1.1389052867889404,1.5710512399673462,3404
75662,0.579723596572876,0.8069923520088196,1.6289150714874268,3404
75732,0.368379682302475,0.8423203229904175,1.9828068017959595,3415
75802,0.40638330578804016,0.45376652479171753,2.2913575172424316,3420
75872,0.2834934592247009,0.18859504163265228,2.5385234355926514,3425
75942,-0.24510043859481812,-0.49631887674331665,2.7735908031463623,3436
76012,-0.4748537242412567,-0.6015912294387817,2.891643524169922,3436
76082,-0.6296549439430237,-0.8182709813117981,2.855950355529785,3441
76152,-0.7294624447822571,-0.6812331080436707,2.8168232440948486,3446
76222,-0.6080402135848999,-0.31887009739875793,2.9057438373565674,3446
76292,-0.5030160546302795,-0.20946753025054932,3.1874778270721436,3441
76362,-0.4144800901412964,-0.09739267081022263,3.6543030738830566,3446
76432,-0.3691475987434387,-0.11860603839159012,4.104650497436523,3441
76502,-0.26512277126312256,-0.06543846428394318,4.464076995849609,3446
76572,-0.3783732056617737,-0.2288285344839096,4.735805034637451,3441
76642,-0.16108158230781555,-0.17334400117397308,4.930262088775635,3441
76712,-0.1723180115222931,-0.02284199185669422,5.056572437286377,3441
76782,-0.0894252359867096,-0.20001749694347382,5.108488082885742,3441
76852,0.058320481330156326,-0.2245005965232849,5.140617370605469,3441
76922,0.0688847228884697,-0.2050672471523285,5.103429317474365,3441
76992,0.21658889949321747,-0.1615997701883316,5.082242488861084,3441
77062,0.4740840494632721,-0.24694712460041046,5.153248310089111,3436
77132,0.5615207552909851,-0.08705605566501617,5.250034809112549,3452
77202,0.5705785751342773,-0.310017466545105,5.327639579772949,3473
77272,0.4978162348270416,-0.29023098945617676,5.395137310028076,3494
77342,0.38239216804504395,-0.34779801964759827,5.406290054321289,3499
77412,0.2696763575077057,-0.013856342062354088,5.403391361236572,3483
77482,0.288972407579422,-0.20909708738327026,5.3365960121154785,3462
77552,0.27347320318222046,-0.07117041200399399,5.125260353088379,3446
77622,0.18459494411945343,0.10177004337310791,4.856890678405762,3436
77692,0.10796547681093216,0.16072940826416016,4.578275203704834,3425
77762,-0.06442396342754364,0.6143380403518677,4.344797134399414,3420
77832,-0.14658768475055695,0.6024768948554993,4.105395317077637,3420
77902,-0.25189563632011414,0.6198821663856506,3.9390199184417725,3420
77972,-0.2995239496231079,0.30205708742141724,3.823699712753296,3425
78042,-0.26376745104789734,0.08276208490133286,3.870290994644165,3431
78112,0.027673598378896713,-0.026131967082619667,3.9962072372436523,3431
78182,-0.021155165508389473,-0.09216805547475815,4.110245704650879,3436
78252,0.04918604716658592,-0.05134691670536995,4.290863990783691,3431
78322,0.10955706983804703,-0.16766329109668732,4.495278358459473,3436
78392,0.15076449513435364,-0.04892721772193909,4.751505374908447,3436
78462,0.09877720475196838,-0.0069461483508348465,5.0134806632995605,3441
78532,-0.10001571476459503,0.048153966665267944,5.303530693054199,3441
78602,-0.08311764895915985,-0.06731536984443665,5.573379039764404,3441
78672,-0.1072109267115593,-0.13901309669017792,5.768026828765869,3446
78742,-0.09852016717195511,-0.10633479058742523,5.845678329467773,3446
78812,-0.011034263297915459,-0.03944249451160431,5.9022932052612305,3446
78882,-0.24720411002635956,0.03365695849061012,5.935034275054932,3441
78952,-0.17598789930343628,0.01394271943718195,5.91109561920166,3441
79022,-0.18163742125034332,-0.1132199838757515,5.823769569396973,3436
79092,-0.10742924362421036,-0.16394715011119843,5.704934597015381,3441
79162,-0.04272617772221565,-0.18582841753959656,5.625222682952881,3441
79232,-0.055684853345155716,-0.15913400053977966,5.600233554840088,3441
79302,-0.03888748213648796,-0.22049583494663239,5.629587173461914,3441
79372,-0.013916230760514736,-0.23570746183395386,5.658238887786865,3441
79442,0.16674865782260895,-0.3799596130847931,5.5897674560546875,3441
79512,0.1342824250459671,-0.21347257494926453,5.483884811401367,3441
79582,0.1911369115114212,-0.14746735990047455,5.431258201599121,3431
79652,0.14177529513835907,0.1222301498055458,5.405728816986084,3441
79722,0.10239481180906296,0.13975520431995392,5.446054458618164,3436
79792,0.29018908739089966,0.0650482103228569,5.608534812927246,3436
79862,0.1941886842250824,0.10943633317947388,5.763980388641357,3441
79932,0.21766117215156555,-0.00046009293873794377,5.845039367675781,3462
80002,0.33719757199287415,-0.1879461109638214,5.705967903137207,3478
80072,0.36632728576660156,-0.28242066502571106,5.383360862731934,3489
80142,0.3129802644252777,-0.32068902254104614,4.954445838928223,3494
80212,0.3888232111930847,-0.16194941103458405,4.480755805969238,3478
80282,0.26772046089172363,0.057930201292037964,4.025129795074463,3457
80352,0.06471472233533859,0.2556212246417999,3.6669013500213623,3436
80422,-0.14636042714118958,0.5905747413635254,3.38871431350708,3425
80492,-0.18764126300811768,0.6640878915786743,3.1261608600616455,3420
80562,-0.11770471185445786,0.5320340394973755,2.8265912532806396,3420
80632,0.301383376121521,0.605301558971405,2.4552066326141357,3420
80702,0.1902918666601181,0.37864136695861816,2.124354839324951,3420
80772,0.28764936327934265,0.012648535892367363,1.7849764823913574,3415
80842,0.20700903236865997,-0.14626973867416382,1.5950924158096313,3420
80912,0.0418800413608551,-0.43770831823349,1.5378332138061523,3420
80982,-0.03527778387069702,-0.5142635107040405,1.4928306341171265,3425
81052,-0.11482951045036316,-0.5949178338050842,1.5109368562698364,3425
81122,-0.08370567858219147,-0.5274956822395325,1.6785951852798462,3431
81192,-0.19342811405658722,-0.5788763165473938,1.8850191831588745,3441
81262,0.042818594723939896,-0.5055475831031799,2.0522143840789795,3441
81332,-0.09411408752202988,-0.38228246569633484,2.224639415740967,3441
81402,0.027901815250515938,-0.3681739568710327,2.461289167404175,3436
81472,-0.00024263167870230973,-0.06596909463405609,2.76458477973938,3441
81542,0.15346893668174744,-0.055916883051395416,3.1564924716949463,3436
81612,0.27368298172950745,0.09807951003313065,3.501314878463745,3431
81682,0.19009904563426971,0.14625228941440582,3.7965428829193115,3431
81752,0.25061020255088806,0.2867980897426605,3.991590976715088,3431
81822,0.2123257964849472,0.31049618124961853,4.099154949188232,3425
81892,0.22600315511226654,0.1847790777683258,4.182004451751709,3431
81962,0.19203384220600128,0.2600860893726349,4.26194429397583,3431
82032,0.15563899278640747,0.16716216504573822,4.367918014526367,3431
82102,0.06814748048782349,0.14308981597423553,4.471957683563232,3431
82172,0.2015354037284851,0.15490399301052094,4.423343658447266,3431
82242,0.04009479656815529,0.09138739109039307,4.296412467956543,3431
82312,0.1411292403936386,0.045714981853961945,4.207480430603027,3431
82382,0.08915027976036072,0.02098357491195202,4.208495140075684,3431
82452,0.20812928676605225,-0.05441611260175705,4.202939510345459,3436
82522,0.21703583002090454,-0.14064158499240875,4.214731216430664,3436
82592,0.22769694030284882,-0.09074614942073822,4.243097305297852,3436
82662,0.12099704891443253,-0.002181287156417966,4.303651809692383,3436
82732,0.19578823447227478,0.12419130653142929,4.420894622802734,3436
82802,0.1366456151008606,0.24402394890785217,4.544342517852783,3441
82872,-0.06276685744524002,0.27530795335769653,4.612514972686768,3436
82942,-0.10485894232988358,0.3272407054901123,4.632688522338867,3436
83012,-0.1501430720090866,0.18253915011882782,4.632648468017578,3436
83082,-0.209565669298172,0.19137251377105713,4.630099296569824,3436
83152,-0.3077683746814728,0.012963742949068546,4.585540294647217,3441
83222,-0.3712199926376343,0.021468007937073708,4.5593647956848145,3436
83292,-0.475689560174942,-0.011363963596522808,4.57512092590332,3431
83362,-0.4902394115924835,0.04599970951676369,4.563685417175293,3431
83432,-0.3998417854309082,0.05689868703484535,4.517333984375,3436
83502,-0.36515316367149353,0.01540693175047636,4.433327674865723,3436
83572,-0.3499479591846466,0.07848136872053146,4.455295085906982,3436
83642,-0.29915404319763184,-0.047793857753276825,4.571742057800293,3446
83712,-0.13651828467845917,-0.26218029856681824,4.723303318023682,3468
83782,0.0705609992146492,-0.43162694573402405,4.820589065551758,3478
83852,0.13433010876178741,-0.4117336869239807,4.819859504699707,3494
83922,0.299800843000412,-0.4322214126586914,4.672874450683594,3504
83992,0.43816283345222473,-0.3672686815261841,4.487114906311035,3473
84062,0.527557373046875,-0.13157892227172852,4.2835798263549805,3446
84132,0.2392878532409668,0.09202956408262253,4.054922103881836,3425
84202,-0.10336733609437943,0.6494058966636658,3.8608219623565674,3415
84272,-0.23044662177562714,0.5130596160888672,3.5805461406707764,3415
84342,-0.45381903648376465,0.2814429700374603,3.435744524002075,3420
84412,-0.5926797986030579,0.7562428116798401,3.4746735095977783,3404
84482,-1.0556062459945679,-0.1635468751192093,3.4852371215820312,3404
84552,-0.34872475266456604,0.6964278221130371,3.6121394634246826,3425
84622,-1.5681540966033936,-0.2932592034339905,4.089223861694336,3436
84692,0.0960044115781784,-0.3523734211921692,4.502731800079346,3441
84762,0.6507740616798401,-0.7714278697967529,4.7698469161987305,3457
84832,1.5361175537109375,-0.9978936910629272,4.864664077758789,3468
84902,1.993908405303955,-0.642523467540741,5.073121547698975,3473
84972,1.5726324319839478,-0.5562193393707275,5.22340202331543,3478
85042,1.3641691207885742,-0.2889299690723419,5.520416259765625,3473
85112,0.6418545246124268,0.7348519563674927,5.5900559425354,3462
85182,0.1676090508699417,0.5749434232711792,5.4531025886535645,3446
85252,-1.0921326875686646,1.0290056467056274,5.258333683013916,3446
85322,-0.8811488151550293,1.4362488985061646,5.033260345458984,3441
85392,-1.773707628250122,0.8833966851234436,5.211649417877197,3446
85462,-1.2831977605819702,0.534204363822937,5.454333305358887,3446
85532,-1.0426210165023804,0.009692203253507614,5.704944610595703,3452
85602,-0.13656574487686157,-0.6328500509262085,5.799037933349609,3457
85672,0.1980559378862381,-1.4391065835952759,5.817416667938232,3462
85742,0.8544499278068542,-1.6413888931274414,5.757242202758789,3468
85812,1.4232491254806519,-1.8062083721160889,6.06856632232666,3774
85882,-0.5265069603919983,-3.451730251312256,7.743016242980957,3779
85952,-2.6983773708343506,-1.1794317960739136,7.855146408081055,3784
86022,-4.666042804718018,0.055751074105501175,3.4446732997894287,3784
86092,-3.1855812072753906,-0.5024964809417725,4.134504318237305,3784
86162,-2.0225327014923096,-0.17961302399635315,4.361495018005371,3790
86232,-1.010179042816162,0.07920655608177185,4.309414863586426,3790
86302,-0.29459652304649353,0.1130015105009079,4.326662063598633,3795
86372,0.12392213195562363,0.1756635159254074,4.201030731201172,3795
86442,0.18236254155635834,0.4584660232067108,4.1780829429626465,3795
86512,0.22079354524612427,0.6333580017089844,4.174361228942871,3800
86582,0.428264856338501,0.48079144954681396,3.9836764335632324,3800
86652,0.7039288878440857,0.32624220848083496,3.7052292823791504,3800
86722,0.6793472170829773,0.29982075095176697,3.664238691329956,3800
86792,0.701739490032196,0.2785220444202423,3.6177735328674316,3805
86862,0.7385861873626709,0.22748170793056488,3.528665065765381,3800
86932,0.6421214938163757,0.2873951196670532,3.5919573307037354,3805
87002,0.6085457801818848,0.250091552734375,3.5457184314727783,3805
87072,0.5237522721290588,0.3212566375732422,3.6023385524749756,3805
87142,0.5577831268310547,0.24186894297599792,3.511423110961914,3811
87212,0.5258055925369263,0.22272071242332458,3.4878289699554443,3811
87282,0.46203675866127014,0.26913464069366455,3.499532461166382,3811
87352,0.44882792234420776,0.21501363813877106,3.4556169509887695,3816
87422,0.42855197191238403,0.2527201473712921,3.446204662322998,3816
87492,0.3957032859325409,0.23572278022766113,3.4234306812286377,3811
87562,0.37762537598609924,0.29973655939102173,3.4161314964294434,3816
87632,0.37909093499183655,0.2860562801361084,3.3835301399230957,3816
87702,0.3613351285457611,0.2811588644981384,3.358499526977539,3821
87772,0.3981601893901825,0.2389647513628006,3.3246870040893555,3821
87842,0.3086228668689728,0.2560180425643921,3.3113996982574463,3821
87912,0.32436826825141907,0.21138019859790802,3.285310745239258,3821
87982,0.31044697761535645,0.22822816669940948,3.2631261348724365,3821
88052,0.24762937426567078,0.21924254298210144,3.2439918518066406,3821
88122,0.32349705696105957,0.1764354109764099,3.2182579040527344,3826
88192,0.31023603677749634,0.21110866963863373,3.2004997730255127,3821
88262,0.2683958411216736,0.21782854199409485,3.179354429244995,3826
88332,0.2523851692676544,0.21393798291683197,3.1557114124298096,3826
