timeStamp,stateEstimate.roll,stateEstimate.pitch,stateEstimate.yaw,pm.vbatMV
181365,0.06295241415500641,-0.7891092300415039,0.023616034537553787,3974
181435,0.06334888935089111,-0.7817984819412231,0.020053895190358162,3974
181505,0.0633748397231102,-0.7772812843322754,0.0203842893242836,3980
181575,0.06522821635007858,-0.7802068591117859,0.02348550595343113,3974
181645,0.06535177677869797,-0.7776394486427307,0.019911395385861397,3974
181715,0.06390050053596497,-0.7775450348854065,0.019671378657221794,3980
181785,0.06141055375337601,-0.7791874408721924,0.018753310665488243,3980
181855,0.05919289216399193,-0.7830331325531006,0.020705698058009148,3980
181925,0.062018588185310364,-0.7756592631340027,0.020503565669059753,3980
181995,0.06118428334593773,-0.7727695107460022,0.01850643940269947,3974
182065,0.06272422522306442,-0.7637269496917725,0.01918245106935501,3974
182135,0.06289775669574738,-0.7550680041313171,0.021359970793128014,3980
182205,0.06813230365514755,-0.7658637166023254,0.023707378655672073,3974
182275,0.06785573810338974,-0.7599332332611084,0.023051172494888306,3980
182345,0.0587359219789505,-0.7510249614715576,0.02434185892343521,3980
182415,0.05759041756391525,-0.7539615631103516,0.023458626121282578,3980
182485,0.056733015924692154,-0.7600580453872681,0.019446440041065216,3980
182555,0.06062328815460205,-0.7440068125724792,0.019473910331726074,3980
182625,0.05957809463143349,-0.7456161975860596,0.021150002256035805,3980
182695,0.05878187716007233,-0.737716555595398,0.019328804686665535,3980
182765,0.059444934129714966,-0.7386096119880676,0.020466439425945282,3974
182835,0.03864394873380661,-0.7548275589942932,0.020289337262511253,3980
182905,0.03262406215071678,-0.7708755731582642,0.02592780627310276,3969
182975,0.03521638363599777,-0.7575927972793579,0.028527861461043358,3980
183045,0.0,0.0,0.0,3980
183115,-0.002114304341375828,-0.0038655786775052547,-0.0017674851696938276,3974
183185,-0.002391512505710125,-0.008747203275561333,-0.003796140430495143,3974
183255,-0.003244629595428705,-0.005963008850812912,-0.0054940697737038136,3974
183325,-0.004669292364269495,-0.012977294623851776,-0.006351725663989782,3980
183395,-0.006826309487223625,-0.013311543501913548,-0.003624935867264867,3980
183465,-0.003590348409488797,-0.01747683621942997,-0.0009107594378292561,3980
183535,-0.0017318965401500463,-0.024653848260641098,-0.00033411470940336585,3974
183605,-0.003696459112688899,-0.029938841238617897,0.0028265498112887144,3974
183675,-0.002565051894634962,-0.037466540932655334,0.005315985064953566,3974
183745,-0.000368965178495273,-0.042054347693920135,0.005391220562160015,3980
183815,0.001457889680750668,-0.04451540857553482,0.004192250315099955,3974
183885,0.0020778498146682978,-0.046289876103401184,0.0028129369020462036,3974
183955,0.0006423840532079339,-0.049749743193387985,0.0037260856479406357,3980
184025,0.0029278534930199385,-0.05320120230317116,0.006169082131236792,3974
184095,0.004710853099822998,-0.0836789608001709,0.0037983336951583624,3077
184165,0.029395831748843193,-0.7497677803039551,0.08426941186189651,3114
184235,0.874530553817749,-0.06273285299539566,0.35033607482910156,3362
184305,-0.34426119923591614,1.263898491859436,0.8896876573562622,3446
184375,-0.292259156703949,-0.15417559444904327,1.5074912309646606,3441
184445,1.125553846359253,-0.17235593497753143,1.9083099365234375,3425
184515,0.707305371761322,0.3640417754650116,2.1166696548461914,3441
184585,0.42400631308555603,-0.38787931203842163,2.1132116317749023,3483
184655,-0.31516358256340027,-0.026943543925881386,1.8201876878738403,3483
184725,-0.31672635674476624,-0.17717665433883667,1.6560337543487549,3494
184795,-0.6367022395133972,0.2050054520368576,1.4776335954666138,3483
184865,-0.8325315117835999,0.15729808807373047,1.257460117340088,3468
184935,-0.8902290463447571,0.32712322473526,1.0962244272232056,3452
185005,-1.0088257789611816,0.608735203742981,0.9798346757888794,3431
185075,-0.9269841313362122,1.0091514587402344,1.010756015777588,3420
185145,-0.8405144214630127,1.0905121564865112,1.1249266862869263,3415
185215,-0.5663876533508301,1.251798152923584,1.1538686752319336,3415
185285,-0.7149624228477478,1.094588041305542,1.116832971572876,3415
185355,-0.4819815456867218,1.1066818237304688,0.9809547066688538,3420
185425,-0.5238483548164368,0.7081483006477356,0.7763726711273193,3425
185495,-0.39240968227386475,0.7788817286491394,0.5531378388404846,3425
185565,-0.09247814118862152,0.5359835624694824,0.3682022988796234,3425
185635,-0.19392544031143188,0.503506600856781,0.27106088399887085,3420
185705,-0.1368415802717209,0.2918262183666229,0.23515628278255463,3425
185775,-0.18574589490890503,0.28523173928260803,0.1469641923904419,3425
185845,-0.2215200811624527,0.23120813071727753,0.021387625485658646,3431
185915,-0.020575175061821938,0.21635682880878448,-0.1659492701292038,3425
185985,0.15038031339645386,0.13663482666015625,-0.4165627360343933,3420
186055,0.3004220128059387,-0.041310761123895645,-0.6608039140701294,3415
186125,0.2849332392215729,0.018849438056349754,-0.8946544528007507,3409
186195,0.07784149795770645,0.05330298840999603,-1.0361078977584839,3415
186265,-0.09447023272514343,-0.1529422253370285,-1.0105198621749878,3415
186335,-0.30929896235466003,-1.8111881017684937,-0.8902550935745239,3420
186405,-0.30531132221221924,-4.224040985107422,-0.669917106628418,3420
186475,-0.3399093747138977,-5.855864524841309,-0.4725116491317749,3415
186545,-0.20160479843616486,-7.146707057952881,-0.40060585737228394,3415
186615,1.8725345134735107,-7.162540435791016,-0.399679958820343,3399
186685,2.694840908050537,-6.678793430328369,-0.37954917550086975,3388
186755,3.0732288360595703,-5.424098968505859,-0.21010927855968475,3394
186825,2.567544937133789,-3.8676135540008545,0.07774392515420914,3388
186895,1.9050257205963135,-2.324665069580078,0.45178988575935364,3388
186965,1.2536896467208862,-1.411483645439148,0.7585995197296143,3404
187035,0.4178454577922821,-0.2172703891992569,0.9357984066009521,3420
187105,-2.166177988052368,0.12037108838558197,1.0117409229278564,3420
187175,-3.0382299423217773,1.3799030780792236,1.150546669960022,3420
187245,-3.4466724395751953,2.6654903888702393,1.1513569355010986,3415
187315,-3.012103796005249,4.238170623779297,1.1538492441177368,3404
187385,-2.37618350982666,6.666021347045898,1.1676172018051147,3404
187455,-1.4420133829116821,7.657508373260498,1.097049593925476,3394
187525,-0.4888867139816284,7.194945812225342,1.0004075765609741,3394
187595,0.19852788746356964,6.030486583709717,0.93822181224823,3388
187665,0.47096365690231323,4.329936981201172,0.965949296951294,3383
187735,-3.1999006271362305,2.672471284866333,0.9988523721694946,3383
187805,-5.429804801940918,1.1873879432678223,0.9407631754875183,3383
187875,-4.091592311859131,-0.13607308268547058,0.9032328128814697,3388
187945,0.006000352092087269,-1.081425428390503,0.9213428497314453,3388
188015,2.501363754272461,-1.5385305881500244,0.9712366461753845,3394
188085,4.120025634765625,-1.4918988943099976,0.8678597807884216,3388
188155,4.5901689529418945,-1.3687231540679932,0.7425820827484131,3388
188225,4.399327754974365,-1.1831008195877075,0.6076078414916992,3383
188295,3.5693094730377197,-0.7120301127433777,0.39187267422676086,3394
188365,2.583075761795044,-2.238354444503784,0.2754686772823334,3394
188435,1.492758870124817,-4.637035846710205,0.1652732938528061,3383
188505,0.5049769282341003,-6.017802715301514,-0.03221418336033821,3383
188575,-0.16745217144489288,-7.149115562438965,-0.30158042907714844,3388
188645,-0.3251592516899109,-7.19387149810791,-0.5668208003044128,3383
188715,1.3053572177886963,-6.116215229034424,-0.8099169135093689,3378
188785,1.5684945583343506,-4.578373908996582,-1.0544171333312988,3383
188855,1.9756639003753662,-3.198791742324829,-1.1285761594772339,3383
188925,1.7203983068466187,-1.717962384223938,-1.0580500364303589,3383
188995,1.3550281524658203,-0.3612510561943054,-0.9852567911148071,3388
189065,0.8514073491096497,0.3800354301929474,-0.9290035367012024,3383
189135,0.5701126456260681,0.714573085308075,-0.924525797367096,3383
189205,0.31128057837486267,1.12056303024292,-0.9944590330123901,3378
189275,-1.5458904504776,1.0105702877044678,-1.052180528640747,3378
189345,-2.1836283206939697,1.489179253578186,-0.9906157851219177,3383
189415,-2.585212469100952,1.9993706941604614,-0.8478449583053589,3378
189485,-2.3727262020111084,3.531437397003174,-0.7010555863380432,3378
189555,-1.8539055585861206,5.349893093109131,-0.5650094151496887,3373
189625,-1.3850408792495728,7.497612476348877,-0.3839022219181061,3373
189695,-0.8331950306892395,7.196009635925293,-0.32868409156799316,3373
189765,-0.3836049735546112,6.387856960296631,-0.26741984486579895,3362
189835,-0.44047731161117554,4.9416985511779785,-0.1467888355255127,3367
189905,-3.9116837978363037,3.2730112075805664,-0.09149562567472458,3362
189975,-5.991984844207764,1.7486590147018433,-0.02286979742348194,3357
190045,-7.374659061431885,0.5474479794502258,0.092642642557621,3362
190115,-5.7065935134887695,-0.295982301235199,0.30413395166397095,3362
190185,-1.0992646217346191,-0.736731767654419,0.5265342593193054,3357
190255,3.035372495651245,-0.9949663281440735,0.7327075004577637,3362
190325,5.073489665985107,-0.9641052484512329,0.9683352112770081,3357
190395,5.9677510261535645,-0.8686938881874084,1.1519829034805298,3357
190465,5.548131942749023,-0.4750292897224426,1.2435250282287598,3362
190535,4.610519886016846,-1.7983165979385376,1.4754420518875122,3367
190605,5.238404273986816,-4.3019537925720215,1.7819640636444092,3373
190675,5.487440586090088,-5.715799331665039,1.8909356594085693,3373
190745,5.87983512878418,-6.73403263092041,1.878901720046997,3362
190815,5.3260273933410645,-6.760351657867432,1.6689122915267944,3357
190885,3.685823440551758,-6.009520530700684,1.2741059064865112,3362
190955,1.781846523284912,-4.587123394012451,0.841962993144989,3362
191025,-0.705240786075592,-3.008617639541626,0.4236859977245331,3357
191095,-4.197940349578857,-1.4751756191253662,0.11795611679553986,3357
191165,-5.14285945892334,-0.1278202384710312,-0.033969804644584656,3357
191235,-5.531318664550781,1.6889803409576416,-0.10649233311414719,3367
191305,-4.799549579620361,2.981135129928589,-0.2315492480993271,3378
191375,-5.213616847991943,6.635022163391113,-0.09186986833810806,3378
191445,-8.654535293579102,9.164137840270996,-0.07800573855638504,3367
191515,-9.000792503356934,9.056965827941895,-0.2817610204219818,3357
191585,-8.54967212677002,7.6535234451293945,-0.5486412048339844,3351
191655,-6.673736572265625,2.0351459980010986,-1.0951217412948608,3336
191725,-1.743230938911438,-2.4455387592315674,-1.0330300331115723,3325
191795,7.865118503570557,-5.582927227020264,-0.5259884595870972,3325
191865,12.25537109375,-6.193138599395752,-0.1583552062511444,3309
191935,15.029541969299316,-5.4331865310668945,-0.10024929791688919,3320
192005,13.046927452087402,-3.2114171981811523,-0.5360759496688843,3325
192075,9.263547897338867,-0.38611969351768494,-0.9065064191818237,3330
192145,3.2144317626953125,3.7002816200256348,-1.0697475671768188,3341
192215,-1.31508207321167,5.440749645233154,-0.6610631942749023,3357
192285,-4.138082027435303,5.7858476638793945,-0.3411429226398468,3367
192355,-5.671069622039795,5.552302837371826,-0.21096718311309814,3367
192425,-5.92178201675415,4.495156288146973,-0.315266877412796,3357
192495,-5.367978572845459,3.464986801147461,-0.38466501235961914,3351
192565,-4.420216083526611,2.467916250228882,-0.45320650935173035,3346
192635,-3.1582698822021484,1.4282582998275757,-0.4552813768386841,3336
192705,-1.842124581336975,0.45997992157936096,-0.3378482162952423,3336
192775,-0.705435574054718,-0.24080422520637512,-0.09711132198572159,3341
192845,0.11537781357765198,-0.617678165435791,0.12033514678478241,3351
192915,0.597173810005188,-0.6701217293739319,0.2637610137462616,3351
192985,0.9126011729240417,-0.5405624508857727,0.34439146518707275,3357
193055,1.0507612228393555,-0.4853092432022095,0.40379050374031067,3351
193125,1.0846877098083496,-0.15084031224250793,0.41473835706710815,3351
193195,0.8782287836074829,-0.012773306109011173,0.37225738167762756,3346
193265,0.641595184803009,0.2318039834499359,0.29436221718788147,3346
193335,0.3181973099708557,0.4328356683254242,0.2244471311569214,3341
193405,0.2147950530052185,0.5429478883743286,0.13977980613708496,3346
193475,0.038049936294555664,0.5435231924057007,0.1026480570435524,3351
193545,-0.020347950980067253,0.4916108548641205,0.1133057251572609,3346
193615,0.7574454545974731,0.6041629314422607,0.16985201835632324,3346
193685,4.929643630981445,0.6382676959037781,0.16484740376472473,3346
193755,7.140730381011963,0.7176482081413269,0.10386785864830017,3341
193825,7.978989601135254,0.6884832978248596,0.03934522345662117,3330
193895,7.692284107208252,0.7243715524673462,-0.05610193684697151,3330
193965,6.426915168762207,0.7842606902122498,-0.15402042865753174,3330
194035,4.853595733642578,0.43052613735198975,-0.1552806943655014,3330
194105,3.114483118057251,0.3934861719608307,-0.15721489489078522,3336
194175,0.5067439079284668,0.1985897570848465,-0.16098985075950623,3336
194245,-4.3574700355529785,0.21802306175231934,-0.20019127428531647,3330
194315,-8.181363105773926,0.265932559967041,-0.21271751821041107,3336
194385,-9.017573356628418,0.18774108588695526,-0.33129674196243286,3351
194455,-9.035469055175781,0.17784959077835083,-0.43418630957603455,3346
194525,-10.737933158874512,0.19877763092517853,-0.43238264322280884,3336
194595,-11.767027854919434,0.24862433969974518,-0.38726046681404114,3336
194665,-11.171130180358887,0.07627584040164948,-0.37853899598121643,3336
194735,-9.531087875366211,-0.06068835034966469,-0.3308071196079254,3330
194805,-7.276859283447266,-0.08615366369485855,-0.28747332096099854,3314
194875,-4.9914937019348145,0.1758606880903244,-0.14566628634929657,3314
194945,-2.7729315757751465,0.35472190380096436,0.01967485249042511,3304
195015,-0.9420766234397888,0.45646578073501587,0.09948456287384033,3320
195085,0.3267830014228821,0.28695401549339294,0.048023760318756104,3336
195155,0.9442915320396423,0.3025408387184143,-0.014386318624019623,3346
195225,1.2872952222824097,0.0070403204299509525,-0.06780271977186203,3351
195295,1.1953293085098267,-0.34134677052497864,-0.11911001056432724,3341
195365,0.794694721698761,-0.2199835330247879,-0.1639920473098755,3341
195435,1.415615200996399,-0.04757414385676384,-0.16139978170394897,3341
195505,5.153684139251709,-0.17270533740520477,-0.0382840558886528,3336
195575,7.461575508117676,-0.07488634437322617,0.01693723350763321,3336
195645,7.5682220458984375,-0.1033153161406517,0.05880872532725334,3325
195715,6.899887561798096,0.0739763155579567,0.060230646282434464,3325
195785,5.210648059844971,-0.044131625443696976,0.08801034092903137,3325
195855,3.545858144760132,0.04592755064368248,0.07442428171634674,3330
195925,1.8002922534942627,0.04761967435479164,0.10234836488962173,3325
195995,0.6249857544898987,0.0783541351556778,0.1332842856645584,3325
196065,-0.6035985946655273,-1.177626371383667,0.15234927833080292,3330
196135,-1.2020785808563232,-3.659353494644165,0.10769230872392654,3330
196205,-1.4912457466125488,-5.419642925262451,0.05694011598825455,3336
196275,-1.3957569599151611,-7.264831066131592,-0.07058876007795334,3336
196345,-1.1291353702545166,-7.688564300537109,-0.178076833486557,3336
196415,-0.7201684713363647,-6.9685959815979,-0.3402760326862335,3325
196485,-0.20000970363616943,-5.562835216522217,-0.46136730909347534,3320
196555,0.17161676287651062,-3.840178966522217,-0.5352457761764526,3314
196625,0.30886125564575195,-2.362290620803833,-0.5295799374580383,3320
196695,0.3247790038585663,-1.1191152334213257,-0.5215082764625549,3325
196765,0.5246813297271729,-0.3416828215122223,-0.5452603697776794,3336
196835,0.5272423028945923,0.03245439752936363,-0.5633306503295898,3336
196905,0.46081534028053284,0.5095592737197876,-0.5602372288703918,3336
196975,0.36878684163093567,0.6164559125900269,-0.5363302826881409,3336
197045,0.2601090669631958,0.5810770392417908,-0.4915443956851959,3325
197115,0.25672653317451477,0.21622753143310547,-0.456726998090744,3325
197185,0.11263300478458405,0.0979577973484993,-0.3691176176071167,3314
197255,0.05065234750509262,-0.1319870948791504,-0.3011253774166107,3314
197325,0.047633539885282516,-0.3871510624885559,-0.2627415955066681,3314
197395,0.008038458414375782,-0.62640780210495,-0.19667908549308777,3320
197465,-0.12918515503406525,-0.760928750038147,-0.0970306321978569,3325
197535,-0.19025123119354248,-1.033402681350708,0.009214202873408794,3325
197605,-0.20109957456588745,-1.1160075664520264,0.022076468914747238,3325
197675,-0.02736491709947586,-1.240056037902832,0.0049291509203612804,3336
197745,0.25092247128486633,-1.0268027782440186,-0.00955809187144041,3336
197815,0.27929168939590454,-0.9432836771011353,-0.02910180762410164,3325
197885,0.29877904057502747,-0.7064068913459778,0.030378160998225212,3320
197955,-0.04648762196302414,-0.3976249098777771,0.10051127523183823,3314
198025,0.13405287265777588,-0.45219185948371887,0.07644058018922806,3314
198095,0.28819984197616577,-0.40810421109199524,-0.1436271369457245,3320
198165,0.592989444732666,-0.5101327896118164,-0.3081851005554199,3320
198235,0.4516613781452179,-0.4282273054122925,-0.39301395416259766,3325
198305,0.5118747353553772,-0.5058411955833435,-0.5499211549758911,3320
198375,0.4810144305229187,-0.6937606930732727,-0.6160321831703186,3314
198445,0.2903955578804016,-0.6260791420936584,-0.49509626626968384,3325
198515,-0.14575938880443573,-0.7891753911972046,-0.33814340829849243,3320
198585,0.12907756865024567,-1.0123168230056763,-0.253175288438797,3320
198655,0.038619693368673325,-0.937312126159668,-0.10593631863594055,3320
198725,-0.039829984307289124,-0.7052667140960693,-0.03273430094122887,3314
198795,-0.03275143727660179,-0.6079084873199463,-0.04386056587100029,3314
198865,0.1241896003484726,-0.4619837701320648,-0.08249828964471817,3320
198935,0.11107081174850464,-0.2348312884569168,-0.10733441263437271,3314
199005,-0.08299308270215988,-0.06219321861863136,-0.15877704322338104,3309
199075,-0.3971438705921173,-0.06759628653526306,-0.07285439968109131,3309
199145,-0.6290038228034973,0.03930698707699776,0.02390155754983425,3320
199215,-0.3237564265727997,-0.4021247625350952,-0.1263435035943985,3320
199285,0.22870366275310516,0.14235828816890717,-0.41007092595100403,3320
199355,0.399607390165329,3.0707273483276367,-0.5331159234046936,3330
199425,0.3750658631324768,7.189058780670166,-0.3784237205982208,3325
199495,-0.11907301843166351,8.211085319519043,-0.09071566164493561,3320
199565,-0.20655019581317902,8.135064125061035,0.13291721045970917,3314
199635,0.0027391547337174416,6.928956985473633,0.45639023184776306,3304
199705,0.10201220214366913,4.8658318519592285,1.1264559030532837,3299
199775,-0.15354886651039124,3.423973321914673,1.971327543258667,3304
199845,0.2657819092273712,1.5282363891601562,2.803605794906616,3304
199915,0.5797019004821777,-0.06227025017142296,3.353322982788086,3304
199985,0.36904415488243103,-0.8248016238212585,3.7259302139282227,3304
200055,0.18221208453178406,-1.4107478857040405,4.028688907623291,3309
200125,-0.2267552763223648,-1.4585357904434204,4.3767499923706055,3304
200195,-0.6461735963821411,-1.1167963743209839,4.57491397857666,3304
200265,-0.9125688076019287,-0.31089431047439575,4.665493965148926,3304
200335,-1.379826545715332,0.22668862342834473,4.568026542663574,3309
200405,-1.2467113733291626,0.6027661561965942,4.266683101654053,3304
200475,-1.3338414430618286,0.5468708872795105,3.86405086517334,3309
200545,-0.9969992637634277,1.0167068243026733,3.6707074642181396,3304
200615,-1.1853750944137573,1.1294615268707275,3.879397392272949,3304
200685,-0.8408565521240234,1.2141144275665283,4.6871018409729,3293
200755,-0.2944379150867462,0.9059872031211853,6.321954250335693,3283
200825,-0.3191661536693573,0.9823180437088013,8.643314361572266,3288
200895,-0.4511827528476715,0.8027368783950806,11.42305850982666,3299
200965,-0.2663930654525757,0.9804129004478455,14.215256690979004,3314
201035,-0.4331231117248535,0.7277743220329285,16.36481285095215,3314
201105,-0.39367803931236267,0.5301715135574341,18.27000617980957,3314
201175,0.13946014642715454,0.38757234811782837,20.245683670043945,3314
201245,0.15531468391418457,0.48947107791900635,22.456201553344727,3309
201315,0.18004626035690308,0.5741159319877625,25.045263290405273,3309
201385,0.2930234968662262,0.4633084535598755,27.780227661132812,3314
201455,0.3874424993991852,0.2893173396587372,30.43412208557129,3309
201525,0.27412354946136475,0.5218729972839355,32.432640075683594,3314
201595,0.09759359061717987,0.4203409254550934,33.905513763427734,3314
201665,0.16031119227409363,0.213401198387146,35.42513656616211,3314
201735,-0.2486162781715393,0.40023747086524963,37.192378997802734,3314
201805,-0.28085893392562866,0.7090074419975281,39.358001708984375,3299
201875,-0.5238528847694397,0.7959709763526917,41.91157913208008,3288
201945,-0.3899608254432678,0.940463125705719,44.105873107910156,3293
202015,-0.13113102316856384,0.47165966033935547,45.68159484863281,3304
202085,0.22293207049369812,0.3381541073322296,46.88787078857422,3309
202155,0.31789183616638184,0.2004133015871048,48.54084777832031,3314
202225,0.4976823329925537,-0.00823068618774414,50.79237747192383,3320
202295,0.46899673342704773,0.022004256024956703,53.23306655883789,3320
202365,-0.21955204010009766,0.2392394244670868,55.17522048950195,3320
202435,0.7798552513122559,-0.009326282888650894,56.75184631347656,3309
202505,1.1048494577407837,0.24273912608623505,58.07321548461914,3309
202575,1.039581298828125,0.25985008478164673,59.116172790527344,3304
202645,0.955362856388092,0.308083713054657,59.85740280151367,3304
202715,0.6572415828704834,0.5410547256469727,60.009159088134766,3309
202785,0.2634592354297638,0.47390738129615784,59.43803024291992,3309
202855,-0.024138983339071274,0.6300157904624939,58.030635833740234,3304
202925,0.005809175316244364,0.42371878027915955,56.26276397705078,3299
202995,0.021671460941433907,0.31464383006095886,54.84577178955078,3299
203065,-0.2664552927017212,0.033581916242837906,53.87305450439453,3293
203135,-0.09821262210607529,0.11623428761959076,53.2328987121582,3293
203205,-0.610639750957489,0.4610802233219147,52.83388900756836,3293
203275,-0.7372644543647766,0.6533837914466858,52.29838180541992,3293
203345,-0.7161720991134644,0.5732492208480835,51.61466598510742,3304
203415,-0.24342219531536102,0.47815895080566406,50.96889877319336,3309
203485,0.4120684862136841,0.5566433072090149,50.402618408203125,3309
203555,0.2551410496234894,0.35921430587768555,50.536659240722656,3309
203625,0.6402176022529602,0.12500716745853424,51.70310974121094,3304
203695,0.5741610527038574,0.15388044714927673,53.40447235107422,3309
203765,0.67978435754776,0.44790738821029663,54.83095169067383,3309
203835,0.49533605575561523,0.40820714831352234,55.844844818115234,3304
203905,0.5415078401565552,0.4655260741710663,56.506385803222656,3304
203975,0.7067217230796814,0.2952021658420563,56.77535629272461,3299
204045,0.43776530027389526,-1.9776960611343384,56.786521911621094,3293
204115,0.6738107800483704,-4.754358291625977,56.527095794677734,3293
204185,0.6157416105270386,-6.452298164367676,56.157875061035156,3293
204255,0.4919201135635376,-7.38997220993042,55.851070404052734,3288
204325,0.3395973742008209,-7.415216445922852,55.37016677856445,3293
204395,0.4234674274921417,-6.273151397705078,54.632896423339844,3299
204465,0.484846293926239,-5.019869327545166,53.74502944946289,3293
204535,0.47514960169792175,-3.6240174770355225,52.92804718017578,3293
204605,0.41693049669265747,-2.3836450576782227,52.30303192138672,3299
204675,0.3163151144981384,-1.273273229598999,51.74190902709961,3299
204745,0.32386502623558044,-0.473601758480072,51.398033142089844,3304
204815,0.24851150810718536,0.2849932909011841,51.256492614746094,3309
204885,0.1394294649362564,0.590831458568573,51.22068405151367,3314
204955,-0.021223589777946472,0.5769780874252319,51.31058120727539,3314
205025,-0.14040938019752502,0.5751897692680359,51.497928619384766,3309
205095,-0.24001993238925934,0.43144869804382324,51.76527786254883,3299
205165,-0.3615325689315796,0.10431073606014252,52.04582977294922,3288
205235,-0.46908754110336304,-0.09937598556280136,52.33567428588867,3288
205305,-0.6177335977554321,-0.23685817420482635,52.589717864990234,3293
205375,-0.6529926061630249,-0.4686471223831177,52.75199890136719,3293
205445,-0.6868574023246765,-0.5951508283615112,52.87945556640625,3299
205515,-0.7244135141372681,-0.5560409426689148,52.998046875,3299
205585,-0.6970821619033813,-0.4849761128425598,53.0587043762207,3299
205655,-0.7614016532897949,-0.4008019268512726,53.076995849609375,3293
205725,-0.5248553156852722,-0.7703896164894104,53.19300842285156,3304
205795,-0.38981059193611145,-0.6412423253059387,53.30875015258789,3304
205865,-0.1665748506784439,-0.6872379779815674,53.4208869934082,3299
205935,0.05442279949784279,-0.7862750887870789,53.468406677246094,3293
206005,0.28241658210754395,-0.3882846534252167,53.472015380859375,3299
206075,0.18009869754314423,0.7335047125816345,53.262840270996094,3309
206145,0.5642834901809692,2.0931851863861084,52.85697937011719,3314
206215,0.8807793855667114,4.0092315673828125,52.39414978027344,3314
206285,0.9122902750968933,6.862968921661377,52.10792922973633,3304
206355,0.8614315986633301,7.4806294441223145,52.015296936035156,3299
206425,0.6878042817115784,7.161090850830078,52.008426666259766,3293
206495,0.7683252096176147,5.836264610290527,52.07054138183594,3293
206565,0.7784497141838074,4.141909599304199,52.482479095458984,3293
206635,0.21551266312599182,2.3242480754852295,53.277549743652344,3288
206705,-0.05869466811418533,1.0045716762542725,54.12369155883789,3283
206775,-0.2525619864463806,0.018765483051538467,55.08735275268555,3288
206845,-0.5198796391487122,-0.3793143630027771,56.020301818847656,3288
206915,-0.34861108660697937,-1.42508864402771,56.88690948486328,3288
206985,-0.20760145783424377,-4.037054061889648,57.37126922607422,3288
207055,-0.20612581074237823,-5.7513885498046875,57.562782287597656,3293
207125,1.252240538597107,-7.149107456207275,57.55821990966797,3288
207195,2.953225612640381,-8.043814659118652,57.63169860839844,3288
207265,3.1381590366363525,-7.41655969619751,57.658775329589844,3293
207335,3.280193328857422,-6.030282974243164,57.18018341064453,3293
207405,3.353708505630493,-4.474239349365234,55.9870491027832,3288
207475,3.7681996822357178,-2.8279082775115967,54.51740646362305,3299
207545,3.3276093006134033,-1.4530441761016846,53.62384033203125,3304
207615,2.5327627658843994,0.15617486834526062,53.25395202636719,3293
207685,1.6214905977249146,1.164324164390564,52.9080924987793,3293
207755,0.12062277644872665,2.2811975479125977,52.6467170715332,3299
207825,-2.4891321659088135,3.3878016471862793,52.79346466064453,3299
207895,-3.046668529510498,4.629909992218018,53.17964172363281,3304
207965,-3.8384311199188232,6.084874153137207,53.852882385253906,3299
208035,-3.5467116832733154,7.803083419799805,54.47767639160156,3293
208105,-3.106494665145874,7.254801273345947,54.8983039855957,3283
208175,-2.3296334743499756,6.634310245513916,55.40863800048828,3278
208245,-1.502149224281311,5.0426812171936035,56.52925491333008,3283
208315,-1.0838990211486816,3.212845802307129,58.14225387573242,3283
208385,-0.6081934571266174,1.684233546257019,60.190887451171875,3283
208455,-0.4190516769886017,0.7849190831184387,62.7191047668457,3288
208525,-0.08837728947401047,-0.113986074924469,65.55892944335938,3283
208595,0.1475832313299179,-0.6265048384666443,68.0178451538086,3288
208665,0.0094787972047925,-0.9918901324272156,69.70201873779297,3283
208735,0.1290585994720459,-1.1405112743377686,70.8082275390625,3283
208805,-0.15845279395580292,-1.1514168977737427,71.71835327148438,3283
208875,-0.437032550573349,-0.7620102763175964,72.18347930908203,3288
208945,-0.7322366833686829,-0.3257125914096832,72.29997253417969,3288
209015,-0.44748547673225403,0.09404107183218002,72.04852294921875,3293
209085,-0.657939612865448,0.3841009736061096,71.71350860595703,3293
209155,-0.1944226324558258,0.5906574130058289,71.33084106445312,3293
209225,-0.24916335940361023,-2.24839186668396,70.8631820678711,3288
209295,0.40219783782958984,-4.321996688842773,69.95496368408203,3288
209365,0.3071686327457428,-5.93380069732666,68.84351348876953,3288
209435,0.8342456817626953,-6.767812728881836,67.8338851928711,3278
209505,2.9280192852020264,-6.827207565307617,66.90554809570312,3283
209575,3.441138744354248,-5.7986674308776855,66.47534942626953,3283
209645,3.5070528984069824,-4.222901344299316,66.34810638427734,3288
209715,3.0977489948272705,-2.839916229248047,66.37421417236328,3288
209785,1.5218884944915771,-1.4072120189666748,66.6983642578125,3293
209855,-0.7582895159721375,-0.24012590944766998,67.4327621459961,3293
209925,-1.924704909324646,0.6906535029411316,68.16923522949219,3299
209995,-2.6176178455352783,0.9198757410049438,68.71575927734375,3299
210065,-2.704594135284424,0.9819586277008057,69.10346221923828,3288
210135,-2.554964780807495,0.8883815407752991,69.58987426757812,3283
210205,-2.1482045650482178,0.5140536427497864,70.576904296875,3278
210275,-1.7920455932617188,0.31173020601272583,72.24740600585938,3278
210345,-1.505112886428833,-0.11718811094760895,74.53482055664062,3283
210415,-1.3634347915649414,-0.3827022314071655,77.14706420898438,3288
210485,-1.120756983757019,-0.581229031085968,79.57022094726562,3283
210555,-1.1923521757125854,-0.6408749222755432,81.4517593383789,3288
210625,-1.1962817907333374,-0.4999978244304657,82.77870178222656,3288
210695,-1.181225061416626,-0.7960406541824341,83.6953125,3288
210765,-0.914525032043457,-0.814440131187439,84.3216552734375,3288
210835,-0.5848429799079895,-0.660729706287384,84.692138671875,3288
210905,-0.39080682396888733,-0.7677302360534668,84.96080017089844,3283
210975,-0.22908221185207367,-0.247859925031662,85.06633758544922,3283
211045,-0.1340186595916748,1.1712337732315063,84.98502349853516,3288
211115,0.22472743690013885,2.7237865924835205,84.84617614746094,3288
211185,0.3436873257160187,5.991481781005859,84.85332489013672,3288
211255,0.26719361543655396,7.724125385284424,84.94451904296875,3288
211325,0.4500742256641388,7.246490478515625,84.94303131103516,3283
211395,0.19132369756698608,6.633789539337158,84.7916488647461,3278
211465,0.4465577006340027,4.729124546051025,84.56464385986328,3272
211535,0.25389471650123596,3.1740894317626953,84.38838195800781,3272
211605,0.2156628519296646,1.5818425416946411,84.13523864746094,3267
211675,-0.11722864955663681,-0.396614134311676,83.9529800415039,3272
211745,-0.393853098154068,-3.964531421661377,83.98907470703125,3267
211815,-0.6170631051063538,-6.291296482086182,84.0984878540039,3272
211885,-0.33631807565689087,-8.125269889831543,84.17933654785156,3278
211955,1.4572210311889648,-8.85565185546875,84.2204360961914,3288
212025,0.6337026357650757,-8.648177146911621,84.2149658203125,3283
212095,-0.11348969489336014,-7.0560078620910645,84.35648345947266,3288
212165,-0.36740225553512573,-5.481109619140625,84.37401580810547,3288
212235,-0.5424254536628723,-3.4527642726898193,84.52342224121094,3288
212305,-0.5698184370994568,-1.9162750244140625,84.6155014038086,3288
212375,-0.4595138132572174,3.5791051387786865,84.8346176147461,3288
212445,-0.8244911432266235,8.44432258605957,84.99569702148438,3283
212515,-0.4645875096321106,9.464018821716309,85.09549713134766,3283
212585,-0.4219873249530792,10.11263370513916,85.14690399169922,3278
212655,-0.11414997279644012,8.64832878112793,85.14441680908203,3278
212725,0.008510883897542953,6.547924518585205,85.09465789794922,3278
212795,-0.011550512164831161,4.566280364990234,85.1429214477539,3272
212865,0.05240657553076744,2.4788269996643066,85.29843139648438,3272
212935,0.028618281707167625,1.1160348653793335,85.45038604736328,3267
213005,0.09473711997270584,-0.17484058439731598,85.69786834716797,3267
213075,-0.11019580811262131,-0.8308691382408142,85.82434844970703,3267
213145,-0.013970042578876019,-1.3295812606811523,85.88809204101562,3272
213215,0.09093723446130753,-1.3940232992172241,86.029052734375,3272
213285,0.05756589025259018,-1.1620876789093018,86.226318359375,3278
213355,0.0025915345177054405,-0.9663321375846863,86.41602325439453,3283
213425,-0.09755148738622665,-0.6670751571655273,86.49948120117188,3288
213495,-0.3579302430152893,-0.3645658493041992,86.49396514892578,3288
213565,-0.33660414814949036,0.011972238309681416,86.37809753417969,3288
213635,-0.2749365568161011,0.26422974467277527,86.24136352539062,3288
213705,-0.20592178404331207,0.5583650469779968,86.13744354248047,3288
213775,-0.09818339347839355,0.7072592973709106,86.16468048095703,3278
213845,-0.21435250341892242,0.7815181016921997,86.29537963867188,3278
213915,-0.34105589985847473,0.803831160068512,86.44627380371094,3272
213985,-0.12207876890897751,0.9093421101570129,86.59761810302734,3278
214055,-0.11185630410909653,0.8615097403526306,87.03999328613281,3278
214125,-0.04852413758635521,0.7740475535392761,88.23135375976562,3278
214195,-0.18511158227920532,0.5627359747886658,90.09786987304688,3278
214265,-0.2285296618938446,0.48309028148651123,92.50323486328125,3283
214335,-0.3374585211277008,0.4270808696746826,95.27906799316406,3283
214405,-0.12069028615951538,0.1604977697134018,98.3887710571289,3278
214475,-0.3632369041442871,0.24029439687728882,101.49187469482422,3267
214545,-0.37819164991378784,0.15641212463378906,104.22135162353516,3272
214615,-0.20710213482379913,0.03545026853680611,106.07711791992188,3278
214685,-0.10651982575654984,0.10904806852340698,107.30540466308594,3278
214755,0.16157513856887817,-0.05256031081080437,108.16803741455078,3278
214825,0.5193473696708679,-0.0070860725827515125,108.87991333007812,3272
214895,0.5525381565093994,-0.1624719798564911,109.94196319580078,3278
214965,0.38516655564308167,-0.04195889085531235,111.4864501953125,3278
215035,0.3279535174369812,0.02193455398082733,113.59477233886719,3262
215105,0.10160357505083084,0.11966972053050995,116.16014862060547,3246
215175,0.21696975827217102,0.4020157754421234,119.03077697753906,3241
215245,0.07319043576717377,0.49349719285964966,121.80884552001953,3241
215315,0.12338759005069733,0.4614831507205963,123.96875762939453,3251
215385,-0.058198269456624985,0.5082913637161255,125.54269409179688,3272
215455,-0.1938660442829132,0.44125664234161377,126.69475555419922,3283
215525,-0.06003471836447716,0.37433311343193054,128.06143188476562,3288
215595,0.04994354024529457,0.41149452328681946,129.81129455566406,3288
215665,0.06636832654476166,0.28204602003097534,131.98329162597656,3293
215735,0.1182488203048706,0.11925205588340759,134.5519561767578,3293
215805,0.2978553771972656,0.36564332246780396,137.4749755859375,3293
215875,0.24371525645256042,0.3975580632686615,140.4964599609375,3293
215945,0.23926186561584473,0.6190797090530396,143.41885375976562,3288
216015,0.3520750105381012,0.37179824709892273,145.63255310058594,3283
216085,0.41065603494644165,0.24806629121303558,147.3245849609375,3278
216155,0.3814978301525116,0.4466095566749573,148.99143981933594,3272
216225,0.3834904730319977,0.1761888712644577,150.82858276367188,3272
216295,0.15112465620040894,0.16641584038734436,152.95350646972656,3262
216365,0.3698830008506775,0.0011701430194079876,155.44879150390625,3251
216435,0.3494810461997986,0.22946977615356445,157.91238403320312,3246
216505,0.07927019149065018,-0.03471694141626358,159.66671752929688,3246
216575,0.44433823227882385,-0.059657443314790726,160.92633056640625,3246
216645,0.5449157953262329,-2.8490347862243652,161.8305206298828,3241
216715,0.5470578074455261,-4.728968620300293,162.3667449951172,3241
216785,0.4410068690776825,-6.232485294342041,162.70223999023438,3246
216855,2.3750834465026855,-7.024463176727295,162.91770935058594,3241
216925,2.8446907997131348,-6.556431770324707,162.9925994873047,3241
216995,2.938291549682617,-5.487094879150391,163.08551025390625,3256
217065,2.576207399368286,-4.070563316345215,163.11106872558594,3267
217135,2.0441417694091797,-2.651484966278076,163.1209716796875,3278
217205,1.3885005712509155,-1.2472552061080933,163.0913543701172,3283
217275,0.9282796382904053,-0.48039668798446655,163.0873260498047,3283
217345,0.32281970977783203,0.25032806396484375,163.1769561767578,3278
217415,-0.31134191155433655,0.9179553985595703,163.32261657714844,3272
217485,-0.5194876194000244,1.2683757543563843,163.27500915527344,3267
217555,-0.6759068369865417,1.158724069595337,163.06822204589844,3262
217625,-0.7476767301559448,0.773835301399231,162.74417114257812,3267
217695,-0.2472609132528305,0.344674676656723,162.2744903564453,3267
217765,0.22441799938678741,0.20793640613555908,161.85340881347656,3267
217835,0.4582373797893524,-0.18645308911800385,161.5880584716797,3267
217905,0.6647933721542358,-0.4642259478569031,161.52392578125,3267
217975,0.5063716769218445,-0.5674743056297302,161.62725830078125,3267
218045,0.7491033673286438,-0.6936219930648804,161.677490234375,3278
218115,0.7376574873924255,-0.5940315127372742,161.6934051513672,3299
218185,0.7415553331375122,-0.8019775152206421,161.79339599609375,3336
218255,0.5226911902427673,-0.9315968751907349,161.9266357421875,3367
218325,0.4775421619415283,-0.95561683177948,162.0310516357422,3383
218395,0.2777283191680908,-0.7114068865776062,162.14146423339844,3383
218465,0.2897753417491913,-0.6916317939758301,162.24073791503906,3378
218535,0.17346873879432678,-0.5328807830810547,162.32362365722656,3378
218605,0.19664566218852997,-0.5776146054267883,162.37879943847656,3362
218675,0.29446354508399963,-0.43430083990097046,162.35841369628906,3341
218745,-1.4040371179580688,-0.3923356831073761,162.3495330810547,3336
218815,-1.9357519149780273,-0.1303528994321823,162.3496856689453,3314
218885,-2.294957399368286,-0.17851360142230988,162.37322998046875,3299
218955,-2.094771146774292,-0.11196492612361908,162.4330291748047,3246
219025,-1.858635425567627,0.22221805155277252,162.48370361328125,3214
219095,-1.429872751235962,0.4571792781352997,162.4628143310547,3198
219165,-0.974160373210907,0.6576797962188721,162.33274841308594,3193
219235,-0.30885833501815796,0.3174881637096405,162.13351440429688,3198
219305,-0.007995941676199436,-0.10082969069480896,162.05862426757812,3204
219375,0.29407942295074463,-0.6965286135673523,162.14036560058594,3214
219445,0.35072246193885803,-1.2322027683258057,162.3134765625,3225
219515,0.2773221433162689,-1.4556196928024292,162.41595458984375,3235
219585,0.5590903759002686,-1.301232099533081,162.36865234375,3235
219655,0.5610150098800659,-1.4237449169158936,162.28524780273438,3246
219725,0.5525434613227844,-1.3810606002807617,162.16558837890625,3251
219795,0.3456821143627167,-1.5277169942855835,162.24269104003906,3262
219865,0.07949986308813095,-1.2906240224838257,162.4213409423828,3267
219935,-0.3356085419654846,-0.8609787225723267,162.5853271484375,3267
220005,-0.5705175995826721,-0.7233487367630005,162.54336547851562,3267
220075,-0.4535031318664551,-0.11915233731269836,162.1905975341797,3272
220145,-0.5035461783409119,0.22251538932323456,161.96701049804688,3278
220215,-0.6488779187202454,0.1960969865322113,161.91929626464844,3283
220285,-0.5396553874015808,-0.012119815684854984,161.98251342773438,3314
220355,-0.7221633791923523,-0.04065292701125145,162.0860595703125,3341
220425,-0.699884831905365,-0.24761469662189484,162.07427978515625,3351
220495,-0.845300018787384,-0.0991368517279625,162.12770080566406,3351
220565,-0.8881089091300964,-0.06407035887241364,162.33352661132812,3351
220635,-0.9333745241165161,0.02910507842898369,162.5792694091797,3346
220705,-0.8112030029296875,-0.033577870577573776,162.78964233398438,3341
220775,-0.637681782245636,-0.21018636226654053,162.86802673339844,3330
220845,-0.362322598695755,-0.4578530490398407,162.90785217285156,3293
220915,-0.10009986162185669,-0.43195629119873047,162.7591094970703,3251
220985,0.5047920942306519,-0.35724738240242004,162.37281799316406,3230
221055,0.8345997929573059,-0.3499523103237152,162.10919189453125,3214
221125,1.00530207157135,-0.09048338979482651,162.17562866210938,3214
221195,1.0510056018829346,-0.10853195190429688,162.29116821289062,3214
221265,1.2704410552978516,-0.6172516942024231,162.0536346435547,3214
221335,-0.165322408080101,0.010220784693956375,161.74856567382812,3209
221405,-0.8982212543487549,0.6743481755256653,161.73529052734375,3204
221475,-0.8882207870483398,3.9584014415740967,162.18836975097656,3230
221545,-2.2787649631500244,6.527173042297363,162.7410430908203,3267
221615,-1.8524961471557617,8.583974838256836,162.83445739746094,3336
221685,-1.3852101564407349,7.951638221740723,162.56507873535156,3399
221755,-0.9551187753677368,4.909521102905273,162.32301330566406,3378
221825,-0.12252715975046158,0.5945919752120972,162.36334228515625,3325
221895,0.8684660196304321,-3.433896541595459,162.5639190673828,3267
221965,0.9256606101989746,-7.763805389404297,163.0478973388672,3251
222035,2.4707717895507812,-9.585404396057129,163.20098876953125,3235
222105,1.6831378936767578,-7.1695051193237305,164.1533203125,3209
222175,0.42909225821495056,-1.0830020904541016,164.4201202392578,3256
222245,0.0010844466742128134,1.01666259765625,164.35301208496094,3288
222315,-1.1119846105575562,6.448007106781006,164.37747192382812,3346
222385,-1.9401682615280151,8.579200744628906,164.01539611816406,3425
222455,-2.0217244625091553,7.606916904449463,162.94451904296875,3747
222525,-2.8820347785949707,3.798039674758911,161.79522705078125,3747
222595,1.1723603010177612,2.0831611156463623,159.21580505371094,3753
222665,1.6031209230422974,1.1677590608596802,161.52366638183594,3747
222735,0.7532351016998291,1.0377527475357056,160.70700073242188,3753
222805,0.7490479946136475,0.9758999347686768,159.9887237548828,3758
222875,0.7523961663246155,0.9578325748443604,159.2148895263672,3758
222945,0.7529504299163818,0.9500790238380432,158.4343719482422,3763
223015,0.7558982968330383,0.945146918296814,157.64248657226562,3763
223085,0.7588069438934326,0.9423252940177917,156.85665893554688,3763
223155,0.7682170271873474,0.9461007714271545,156.06988525390625,3763
223225,0.775093674659729,0.9352158904075623,155.2891082763672,3768
223295,0.7726777195930481,0.9072771072387695,154.48770141601562,3768
223365,0.7816178798675537,0.9044647812843323,153.70526123046875,3774
223435,0.7816051244735718,0.8979531526565552,152.94024658203125,3774
223505,0.7862563133239746,0.882927656173706,152.16131591796875,3774
223575,0.7904109358787537,0.8634915947914124,151.38902282714844,3774
223645,0.7977905869483948,0.8503242135047913,150.61158752441406,3768
223715,0.8027083873748779,0.8447721004486084,149.82901000976562,3779
223785,0.8095178604125977,0.8351361751556396,149.05511474609375,3779
223855,0.8126789331436157,0.8294636011123657,148.28189086914062,3784
223925,0.813423216342926,0.8118946552276611,147.50975036621094,3784
223995,0.8166085481643677,0.805774450302124,146.74061584472656,3784
224065,0.8191348910331726,0.7954816222190857,145.96978759765625,3784
224135,0.8206340670585632,0.779644787311554,145.20184326171875,3784
224205,0.8251966834068298,0.7692846655845642,144.4370880126953,3784
224275,0.8300346732139587,0.7553278207778931,143.67422485351562,3790
