timeStamp,stateEstimate.roll,stateEstimate.pitch,stateEstimate.yaw,pm.vbatMV
45537,0.020489532500505447,-0.10662351548671722,-0.13917677104473114,3911
45607,0.012662911787629128,-0.12062723189592361,-0.13691560924053192,3916
45677,0.013115615583956242,-0.11989016830921173,-0.13489258289337158,3916
45747,0.01341866422444582,-0.11294756084680557,-0.13382288813591003,3906
45817,0.009476974606513977,-0.12434408068656921,-0.12804129719734192,3916
45887,0.005635224282741547,-0.1155524030327797,-0.1288292109966278,3911
45957,0.0073927948251366615,-0.10893405973911285,-0.12893877923488617,3916
46027,0.006933100521564484,-0.11072461307048798,-0.12603019177913666,3916
46097,0.015084965154528618,-0.11593175679445267,-0.12311144173145294,3916
46167,0.016570918262004852,-0.11458466202020645,-0.1239849105477333,3911
46237,0.014805669896304607,-0.12281359732151031,-0.1193593218922615,3916
46307,0.009308305568993092,-0.1340307593345642,-0.12316284328699112,3916
46377,0.008280759677290916,-0.13670067489147186,-0.1220584511756897,3916
46447,0.010528391227126122,-0.14018994569778442,-0.12108353525400162,3916
46517,0.006684673484414816,-0.14505523443222046,-0.11965088546276093,3916
46587,0.008084729313850403,-0.14283479750156403,-0.11601709574460983,3911
46657,0.007062979508191347,-0.14208661019802094,-0.11476752907037735,3916
46727,0.0069149755872786045,-0.1406187117099762,-0.11233624815940857,3911
46797,0.005813625641167164,-0.14394603669643402,-0.11083289235830307,3916
46867,0.006872382014989853,-0.14687465131282806,-0.11105687916278839,3916
46937,0.00780960638076067,-0.13223962485790253,-0.11810831725597382,3916
47007,0.00544710224494338,-0.1321137547492981,-0.11823044717311859,3916
47077,0.0021820461843162775,-0.1473752111196518,-0.11079703271389008,3911
47147,8.66558839334175e-05,-0.1522524058818817,-0.11135875433683395,3916
47217,-0.0005054457578808069,-0.1529550701379776,-0.11168689280748367,3911
47287,0.00046257692156359553,-0.1517278105020523,-0.11186229437589645,3911
47357,0.0009969122475013137,-0.1557256430387497,-0.11112645268440247,3916
47427,0.0014538828982040286,-0.1477980613708496,-0.11107413470745087,3916
47497,0.0019388392101973295,-0.14286643266677856,-0.11011593043804169,3916
47567,0.005350547377020121,-0.12011169642210007,-0.1193758100271225,3916
47637,0.013116330839693546,-0.09721815586090088,-0.12688353657722473,3911
47707,-0.005069137550890446,-0.1381017416715622,-0.10713762789964676,3911
47777,0.004161052405834198,-0.08743277937173843,-0.13335789740085602,3916
47847,-0.002039613202214241,-0.12454162538051605,-0.11326523125171661,3916
47917,0.0037368349730968475,-0.12632282078266144,-0.11056993901729584,3911
47987,-0.000436414557043463,-0.12328342348337173,-0.10649921745061874,3916
48057,-0.0032225653994828463,-0.12519966065883636,-0.10387606918811798,3911
48127,-0.002701292745769024,-0.1226196438074112,-0.10330715775489807,3911
48197,-0.003936171997338533,-0.11942388862371445,-0.1037873700261116,3916
48267,-0.0011434225598350167,-0.10841149836778641,-0.10449694842100143,3916
48337,-0.001415672479197383,-0.007821242325007915,0.0010529099963605404,3911
48407,-0.0017014662735164165,-0.009589804336428642,9.726751159178093e-05,3911
48477,-0.0011417956557124853,-0.007844816893339157,-0.004876093007624149,3916
48547,0.001067272387444973,-0.003702211659401655,-0.0034657572396099567,3916
48617,0.0025981192011386156,-0.01244326215237379,-0.003649426158517599,3911
48687,0.0008154446259140968,-0.014421668834984303,-0.005633472464978695,3916
48757,0.0007199880201369524,-0.013783770613372326,-0.005552088841795921,3916
48827,-0.002204496180638671,-0.013921686448156834,-0.005797851365059614,3916
48897,-0.0016654189676046371,-0.013418436981737614,-0.005775974132120609,3916
48967,0.002737578935921192,-0.011645466089248657,-0.007478330750018358,3916
49037,0.0037190131843090057,-0.017459366470575333,-0.009715685620903969,3916
49107,0.005664333235472441,-0.01631329394876957,-0.011127901263535023,3911
49177,0.007665303535759449,-0.014372583478689194,-0.011422216892242432,3916
49247,0.010460417717695236,-0.0169062539935112,-0.009882314130663872,3911
49317,0.010232911445200443,-0.012731767259538174,-0.01212363038212061,3916
49387,0.006552583537995815,-0.030127359554171562,-0.013816104270517826,2945
49457,-0.05348633974790573,0.1531771570444107,0.0011095649097114801,3267
49527,0.01914227195084095,-0.7075958251953125,0.9422517418861389,3446
49597,0.41468513011932373,0.19118329882621765,2.838970422744751,3499
49667,-1.5859332084655762,1.7281395196914673,4.977388858795166,3515
49737,-1.8115754127502441,0.3320620656013489,7.277528762817383,3510
49807,-1.8692328929901123,1.5880041122436523,9.077869415283203,3531
49877,0.47811445593833923,0.05312182381749153,9.814602851867676,3531
49947,0.5532917976379395,0.4449518620967865,10.129511833190918,3520
50017,0.5733802914619446,0.1353255957365036,10.398709297180176,3520
50087,0.9472095966339111,0.192243754863739,9.887619018554688,3504
50157,1.1296095848083496,-0.23780161142349243,9.192834854125977,3494
50227,1.242927074432373,0.2928066849708557,8.60988712310791,3494
50297,0.6595352292060852,0.17712897062301636,8.106610298156738,3489
50367,0.6721920967102051,0.06432782113552094,7.660421371459961,3483
50437,0.4402288496494293,0.0496889092028141,7.26732873916626,3478
50507,-0.021802851930260658,-0.035609375685453415,6.924861431121826,3489
50577,0.05199771374464035,-0.2117668241262436,6.633149147033691,3489
50647,-0.269207626581192,-0.2651379108428955,6.328841209411621,3489
50717,-0.29508325457572937,-0.27900099754333496,5.980737209320068,3494
50787,-0.30496746301651,-0.37654080986976624,5.59775972366333,3499
50857,-0.3265684247016907,-0.3192617893218994,5.2292866706848145,3499
50927,-0.11140365898609161,-0.36483266949653625,4.9055304527282715,3483
50997,-0.00028541931533254683,-0.13508275151252747,4.669188976287842,3483
51067,-0.0720638781785965,-0.08645512163639069,4.460753440856934,3483
51137,-0.160309299826622,-0.10122896730899811,4.269367218017578,3494
51207,0.03747435659170151,-0.2085081934928894,4.089179515838623,3483
51277,0.08329615741968155,-0.19525770843029022,3.9488630294799805,3483
51347,0.3172456622123718,-0.21276377141475677,3.830984592437744,3489
51417,0.36828795075416565,-0.22054120898246765,3.690300941467285,3489
51487,0.3623712360858917,-0.24141475558280945,3.5893619060516357,3483
51557,0.2831141948699951,-0.27591627836227417,3.490152359008789,3483
51627,0.2031213343143463,-0.2025112360715866,3.3940703868865967,3483
51697,0.06820869445800781,-0.21678264439105988,3.259226083755493,3478
51767,0.04064543917775154,-0.18989337980747223,3.139155864715576,3478
51837,0.0198417566716671,-0.3391053378582001,3.0119946002960205,3478
51907,0.06289545446634293,-0.21173542737960815,2.9007394313812256,3478
51977,0.12339632213115692,-0.19963474571704865,2.8378353118896484,3473
52047,0.05585996434092522,-0.16053901612758636,2.7729122638702393,3468
52117,0.13311070203781128,-0.12357653677463531,2.7386527061462402,3452
52187,0.005134059116244316,0.008544566109776497,2.7832624912261963,3436
52257,-0.15329894423484802,0.19198380410671234,2.9805045127868652,3420
52327,-0.2758859395980835,0.30232393741607666,3.223825216293335,3420
52397,-0.3404182195663452,0.31329575181007385,3.42812180519104,3436
52467,-0.2867923080921173,0.03390233963727951,3.3990654945373535,3457
52537,-0.05843248590826988,-0.367282509803772,3.157799243927002,3473
52607,0.1312655806541443,-0.43698474764823914,2.738097667694092,3483
52677,0.15769793093204498,-0.3848575949668884,2.273254156112671,3489
52747,0.4708830416202545,-0.352653443813324,1.8256052732467651,3483
52817,0.41358131170272827,-0.1847403198480606,1.4483537673950195,3468
52887,0.3446138799190521,0.08863363415002823,1.2624434232711792,3452
52957,0.19557194411754608,0.3202776312828064,1.2409435510635376,3436
53027,-0.1578722894191742,0.5585139393806458,1.3447285890579224,3436
53097,-0.3082701861858368,0.453426718711853,1.4816681146621704,3457
53167,-0.18833059072494507,0.1503390222787857,1.5479769706726074,3473
53237,-0.08001589775085449,0.11254832148551941,1.5281615257263184,3483
53307,0.04652164876461029,-0.6421456336975098,1.4255701303482056,3494
53377,0.16380809247493744,-0.7841411232948303,1.2810434103012085,3483
53447,0.23245011270046234,-0.738059937953949,1.173327922821045,3462
53517,0.19854624569416046,-0.460426926612854,1.179590106010437,3436
53587,-0.0672643780708313,-0.05960426107048988,1.3198047876358032,3431
53657,-0.12490496784448624,0.09790048003196716,1.5475901365280151,3431
53727,-0.32646381855010986,0.22041772305965424,1.7178678512573242,3446
53797,-0.29169952869415283,0.12388814240694046,1.7553095817565918,3462
53867,-0.20617900788784027,0.04445153847336769,1.6528809070587158,3473
53937,-0.14825281500816345,-0.04069327190518379,1.4206935167312622,3489
54007,0.4537414014339447,-0.25808244943618774,1.1019891500473022,3478
54077,0.6543446779251099,-0.15875720977783203,0.8096127510070801,3452
54147,0.4018986225128174,0.3222908675670624,0.6510395407676697,3431
54217,0.2180439680814743,0.36989274621009827,0.6677250862121582,3425
54287,0.009884134866297245,0.5765001773834229,0.8275721669197083,3431
54357,-0.28133535385131836,0.39718958735466003,1.013303518295288,3457
54427,-0.2505582273006439,0.16607306897640228,1.0491243600845337,3473
54497,-0.08925377577543259,-0.09213662147521973,0.9535358548164368,3473
54567,-0.38734400272369385,-0.08428941667079926,0.8459810018539429,3452
54637,-0.8158783912658691,0.22209107875823975,0.8443068861961365,3431
54707,-1.0593540668487549,0.2795286774635315,0.9090899229049683,3425
54777,-1.0574861764907837,0.3616061210632324,1.066178798675537,3431
54847,-0.9225661754608154,0.29438886046409607,1.1939060688018799,3446
54917,-0.5106840133666992,-0.08361060917377472,1.2179605960845947,3462
54987,-0.40785351395606995,-0.028709208592772484,1.109171748161316,3457
55057,-0.21156327426433563,-0.1497897058725357,0.9534285068511963,3441
55127,-0.16762179136276245,-0.25034600496292114,0.8270797729492188,3431
55197,-0.10637670010328293,0.35177600383758545,0.7239073514938354,3431
55267,-0.15093596279621124,0.4244564473628998,0.6712924838066101,3441
55337,0.07585350424051285,0.3653782904148102,0.6199995279312134,3462
55407,0.1711728721857071,0.131215900182724,0.4955028295516968,3468
55477,0.19979523122310638,0.058357253670692444,0.3241163492202759,3457
55547,0.32592296600341797,-0.008138933219015598,0.2362203150987625,3441
55617,0.2752643823623657,0.011418229900300503,0.23774926364421844,3425
55687,0.23971755802631378,0.06301967799663544,0.3264234960079193,3425
55757,0.1817791759967804,-0.05520546808838844,0.4311200678348541,3436
55827,0.16160106658935547,-0.23847462236881256,0.4178796112537384,3457
55897,0.16325445473194122,-0.32406389713287354,0.34868964552879333,3457
55967,0.1546955704689026,-0.386205792427063,0.22107844054698944,3478
56037,0.23081286251544952,-0.3149380087852478,0.06167004257440567,3478
56107,0.0375123955309391,-0.1844458132982254,-0.10203377902507782,3478
56177,0.12307984381914139,-0.10810046643018723,-0.2369845062494278,3478
56247,0.08256731927394867,-0.032417554408311844,-0.3723295032978058,3468
56317,0.056372422724962234,-0.12718287110328674,-0.48259735107421875,3468
56387,-0.0070978133007884026,-0.06285268068313599,-0.5607151389122009,3462
56457,-0.07106740772724152,-0.08925274014472961,-0.5807763934135437,3452
56527,-0.06028857082128525,-0.07982000708580017,-0.5374705195426941,3446
56597,-0.14478448033332825,0.05035705491900444,-0.4304768145084381,3415
56667,-0.07369878888130188,0.2954130470752716,-0.15232060849666595,3394
56737,-0.17273038625717163,0.47519880533218384,0.323000967502594,3388
56807,-0.1779511570930481,0.5786834955215454,0.873758852481842,3404
56877,-0.07233881205320358,0.14196400344371796,1.2489862442016602,3425
56947,0.23977729678153992,-0.03135260194540024,1.4377409219741821,3431
57017,0.324070006608963,-0.28658434748649597,1.4551299810409546,3446
57087,0.5433559417724609,-0.46659308671951294,1.2972897291183472,3441
57157,0.49783581495285034,-0.5316254496574402,1.0469456911087036,3457
57227,0.42809930443763733,-0.5733371376991272,0.7868771553039551,3446
57297,0.3186866044998169,-0.5151842832565308,0.5224407911300659,3462
57367,0.29835423827171326,-0.7093373537063599,0.23621346056461334,3462
57437,0.21679314970970154,-0.5810551047325134,-0.042673997581005096,3462
57507,0.010840266942977905,-0.45220741629600525,-0.27620041370391846,3452
57577,-0.054548852145671844,-0.3222927451133728,-0.45187845826148987,3457
57647,-0.1191394105553627,-0.26352235674858093,-0.5835071802139282,3452
57717,-0.081191785633564,-0.20126129686832428,-0.6897231340408325,3446
57787,-0.1774407923221588,-0.1834459900856018,-0.7333094477653503,3446
57857,-0.14316824078559875,-0.002035992918536067,-0.7578320503234863,3452
57927,-0.08682817965745926,0.06161106377840042,-0.7760423421859741,3446
57997,-0.0683412179350853,0.18250976502895355,-0.7572871446609497,3436
58067,-0.041267652064561844,0.27763909101486206,-0.7035518288612366,3425
58137,-0.11451585590839386,0.47514453530311584,-0.6235341429710388,3436
58207,-0.13130642473697662,0.46385157108306885,-0.573756992816925,3420
58277,-0.13623465597629547,0.44028162956237793,-0.45556697249412537,3399
58347,-0.18322886526584625,0.49774327874183655,-0.22845938801765442,3388
58417,-0.17485716938972473,0.5528797507286072,0.09262120723724365,3378
58487,-0.27994662523269653,0.4266691505908966,0.5194302797317505,3399
58557,-0.30980178713798523,0.20873574912548065,0.8509925603866577,3409
58627,-0.3443160951137543,-0.041246842592954636,0.9802641272544861,3425
58697,-0.17660394310951233,-0.3293667137622833,0.8786096572875977,3441
58767,-0.061983563005924225,-0.4349929392337799,0.6526700854301453,3446
58837,0.09286925196647644,-0.5149326324462891,0.4043293595314026,3452
58907,0.16778138279914856,-0.3406166136264801,0.12738756835460663,3457
58977,0.1827699840068817,-0.2665777802467346,-0.10370931029319763,3462
59047,0.2485588639974594,-0.13497546315193176,-0.31357869505882263,3452
59117,0.04840737208724022,0.11044611036777496,-0.45386090874671936,3446
59187,0.014462597668170929,0.19672739505767822,-0.5430843234062195,3441
59257,-0.03534311056137085,0.2938147783279419,-0.5409225821495056,3415
59327,-0.2089567631483078,0.32762303948402405,-0.4048190116882324,3404
59397,-0.20345591008663177,0.34153518080711365,-0.16761505603790283,3388
59467,-0.30366289615631104,0.2129065841436386,0.23264890909194946,3394
59537,-0.1937083899974823,-0.06321114301681519,0.5565627217292786,3409
59607,-0.25609520077705383,-0.4562629163265228,0.6829420328140259,3431
59677,-0.2641448378562927,-0.7331061959266663,0.6653670072555542,3431
59747,-0.1978963315486908,-0.6813744902610779,0.5602167248725891,3431
59817,-0.3200222849845886,-0.8417303562164307,0.3815567195415497,3431
59887,-0.25310131907463074,-0.7339859008789062,0.1826484352350235,3436
59957,-0.41552627086639404,-0.5344446897506714,-0.04135694354772568,3446
60027,-0.3626152276992798,-0.5940383672714233,-0.22488448023796082,3446
60097,-0.2963915169239044,-0.5585838556289673,-0.3716847896575928,3446
60167,-0.21648766100406647,-0.3657280206680298,-0.5145769715309143,3446
60237,-0.13872474431991577,-0.2901543974876404,-0.6475526690483093,3452
60307,-0.06250418722629547,-0.15162082016468048,-0.7901912331581116,3441
60377,-0.16929659247398376,-0.26835060119628906,-0.9021273851394653,3431
60447,-0.19110704958438873,-0.13245059549808502,-0.9616525769233704,3431
60517,-0.285462349653244,-0.07996447384357452,-1.0039762258529663,3436
60587,-0.2146601527929306,0.07141025364398956,-0.9623364806175232,3431
60657,-0.17613551020622253,0.15640047192573547,-0.8873563408851624,3425
60727,-0.1081136092543602,0.30218562483787537,-0.7871911525726318,3420
60797,-0.10367812216281891,0.3371165096759796,-0.6842281818389893,3420
60867,-0.10087756812572479,0.3647567629814148,-0.6117879748344421,3415
60937,0.010065685957670212,0.27097591757774353,-0.5458469986915588,3420
61007,-0.03315168619155884,0.0651441365480423,-0.4828891158103943,3409
61077,-0.05319933220744133,-0.010500817559659481,-0.3421979546546936,3415
61147,-0.08508162945508957,-0.22018131613731384,-0.19627684354782104,3415
61217,-0.06933186203241348,-0.2262590229511261,-0.09650935977697372,3425
61287,-0.06684570759534836,-0.29942411184310913,-0.026994822546839714,3420
61357,-0.0983937606215477,-0.1530866026878357,0.05958806723356247,3420
61427,0.011107978411018848,-0.7721285820007324,0.11351873725652695,3425
61497,0.10339157283306122,-0.4026462435722351,0.18894384801387787,3420
61567,0.09568633884191513,-0.3387438654899597,0.27228766679763794,3420
61637,0.2217877209186554,-0.22846220433712006,0.3674790859222412,3425
61707,0.21209807693958282,-0.19912627339363098,0.4119020402431488,3425
61777,0.25229954719543457,-0.08901561796665192,0.42890599370002747,3420
61847,0.23265674710273743,-0.057216010987758636,0.3930569589138031,3431
61917,0.20405782759189606,-0.09286545217037201,0.35031577944755554,3425
61987,0.02717229165136814,-0.009031523950397968,0.3159952759742737,3415
62057,0.019834205508232117,0.04353542998433113,0.2651359438896179,3409
62127,-0.03551015257835388,0.1441848874092102,0.23709356784820557,3415
62197,-0.014451174065470695,0.2742463946342468,0.22507859766483307,3415
62267,0.05171731859445572,0.1715710163116455,0.2236616015434265,3415
62337,0.033879078924655914,0.22335182130336761,0.29589736461639404,3415
62407,0.03379213437438011,0.1757073700428009,0.38586172461509705,3415
62477,-0.06928522884845734,0.28127795457839966,0.4493824541568756,3409
62547,0.000906973029486835,0.04742175340652466,0.46366310119628906,3436
62617,0.0393330454826355,0.0005656771827489138,0.40003320574760437,3420
62687,-0.07230599224567413,0.1372309774160385,0.35138827562332153,3409
62757,-0.11107539385557175,0.17942100763320923,0.3035926818847656,3420
62827,0.012359212152659893,0.07547062635421753,0.25519925355911255,3415
62897,-0.041620977222919464,-0.050783734768629074,0.281559556722641,3420
62967,-0.04722413048148155,-0.11930860579013824,0.28070229291915894,3415
63037,-0.08254148066043854,-0.09702380746603012,0.2920401990413666,3409
63107,-0.020832855254411697,-0.1928262859582901,0.31307581067085266,3415
63177,-0.09028128534555435,-0.21581752598285675,0.2965852618217468,3425
63247,0.06866190582513809,-0.18427348136901855,0.2235601544380188,3415
63317,0.056204818189144135,-0.03756258636713028,0.18129366636276245,3409
63387,0.2398296445608139,-0.08500181138515472,0.16133388876914978,3404
63457,0.23556366562843323,0.020686931908130646,0.16137036681175232,3409
63527,0.29948949813842773,-0.09304202347993851,0.18960312008857727,3409
63597,0.427701860666275,-0.08110251277685165,0.212899312376976,3415
63667,0.27263787388801575,0.17123530805110931,0.21153374016284943,3404
63737,0.2780568301677704,0.34170207381248474,0.2142113745212555,3404
63807,0.12771013379096985,0.20542137324810028,0.2429945021867752,3404
63877,0.06478853523731232,0.14245331287384033,0.20372210443019867,3425
63947,-0.14097608625888824,0.3548087775707245,0.13979770243167877,3431
64017,-0.20253002643585205,0.3457767367362976,0.04289970174431801,3425
64087,-0.02376461587846279,0.06467503309249878,-0.09458545595407486,3415
64157,-0.012101425789296627,0.3536990284919739,-0.20749665796756744,3409
64227,0.04233671352267265,0.25377199053764343,-0.2684052884578705,3409
64297,0.05634961649775505,0.333098441362381,-0.33420607447624207,3409
64367,6.362803833326325e-05,0.23200102150440216,-0.37297531962394714,3415
64437,0.0325472317636013,0.11839728057384491,-0.37936699390411377,3404
64507,0.0015743228141218424,0.09827294945716858,-0.36789724230766296,3404
64577,0.08771692961454391,0.026260435581207275,-0.3587930500507355,3399
64647,-0.0811222568154335,0.07747890055179596,-0.3289772570133209,3404
64717,-0.20140504837036133,0.04670586436986923,-0.27753946185112,3409
64787,-0.1131381019949913,-0.3122204542160034,-0.2372174710035324,3420
64857,-0.11458700895309448,-0.18237124383449554,-0.25378936529159546,3415
64927,-0.04674481600522995,-0.28049275279045105,-0.3013584613800049,3420
64997,-0.0639691948890686,-0.21690210700035095,-0.38101786375045776,3415
65067,0.03852654621005058,-0.177684485912323,-0.45259371399879456,3409
65137,-0.043695226311683655,-0.10687798261642456,-0.5371509790420532,3409
65207,-0.05743078887462616,-0.07952766120433807,-0.6050845980644226,3415
65277,-0.08650384098291397,-0.0627569705247879,-0.6457473039627075,3404
65347,-0.10954990983009338,-0.008893510326743126,-0.6355962753295898,3399
65417,-0.20442889630794525,0.023241611197590828,-0.5868414640426636,3399
65487,-0.23634880781173706,-0.017733406275510788,-0.5394388437271118,3399
65557,-0.13666269183158875,0.169657900929451,-0.5279396772384644,3409
65627,-0.0825764387845993,0.13538870215415955,-0.5670907497406006,3404
65697,-0.009069312363862991,0.033717479556798935,-0.6518720388412476,3404
65767,0.009244397282600403,0.02492421492934227,-0.8016828298568726,3415
65837,0.014313274063169956,-0.026069076731801033,-0.9762936234474182,3404
65907,0.007763585075736046,0.025132374837994576,-1.1621010303497314,3409
65977,-0.016948198899626732,-0.058760467916727066,-1.3236918449401855,3409
66047,-0.07561700791120529,0.21616287529468536,-1.4266259670257568,3409
66117,-0.08657420426607132,0.1298210322856903,-1.474150538444519,3409
66187,-0.07311173528432846,0.16980533301830292,-1.4423586130142212,3404
66257,-0.019584808498620987,0.06379944086074829,-1.3668255805969238,3409
66327,-0.015230166725814342,-0.10566168278455734,-1.2864435911178589,3420
66397,0.0026168201584368944,0.11275541037321091,-1.183505892753601,3409
66467,-0.017353050410747528,0.0034339623525738716,-1.1099551916122437,3399
66537,0.00632154056802392,0.2035674899816513,-1.0157824754714966,3388
66607,-0.004930021241307259,0.10458245128393173,-0.9305192232131958,3404
66677,0.14810332655906677,-0.06659852713346481,-0.915088415145874,3404
66747,0.05620561167597771,0.012396817095577717,-0.9471151828765869,3409
66817,0.08811330050230026,-0.2842148244380951,-0.99233478307724,3404
66887,0.22237566113471985,-0.07677924633026123,-1.0202937126159668,3399
66957,0.1762230396270752,-0.13214735686779022,-1.0190716981887817,3399
67027,0.3026122450828552,-0.20922093093395233,-1.0051850080490112,3415
67097,0.2594499886035919,-0.3018432557582855,-0.9856163263320923,3404
67167,0.15766601264476776,-0.28833407163619995,-0.9702244997024536,3404
67237,0.1581374853849411,-0.41801518201828003,-0.9634971618652344,3404
67307,0.11793817579746246,-0.11557286232709885,-0.9208738207817078,3399
67377,0.028497206047177315,-0.13777121901512146,-0.92007976770401,3409
67447,0.19396427273750305,-0.09165527671575546,-0.9296545386314392,3409
67517,0.08155421167612076,-0.20638306438922882,-0.9792129993438721,3446
67587,0.37790238857269287,-0.3488418459892273,-1.1174266338348389,3457
67657,0.224873349070549,-0.2702774405479431,-1.2805061340332031,3462
67727,0.22243431210517883,-0.40485328435897827,-1.469438076019287,3462
67797,0.02789941057562828,-0.3202971816062927,-1.6423296928405762,3473
67867,0.03388907015323639,-0.37495142221450806,-1.7919886112213135,3457
67937,-0.0728854313492775,-0.4236755669116974,-1.9591398239135742,3446
68007,0.08918667584657669,-0.38784945011138916,-2.1372199058532715,3452
68077,-0.31239062547683716,-0.49555104970932007,-2.376453399658203,3446
68147,0.4413897693157196,-0.2741276025772095,-2.6046416759490967,3404
68217,0.5822437405586243,-0.29205527901649475,-2.9075350761413574,3373
68287,0.3719620108604431,-0.3919863700866699,-3.1044435501098633,3351
68357,-0.12622281908988953,-0.008267886005342007,-2.956150770187378,3346
68427,-0.33002573251724243,-0.028709517791867256,-2.530951976776123,3362
68497,-0.30399376153945923,-0.19711650907993317,-2.091653347015381,3351
68567,0.005433056503534317,-0.1425601691007614,-1.673506259918213,3357
68637,0.3801623582839966,-0.6345404386520386,-1.3142765760421753,3362
68707,0.4829238951206207,-0.608413577079773,-0.9627858400344849,3357
68777,0.7390235662460327,-0.7544318437576294,-0.7111777067184448,3367
68847,0.27392104268074036,-0.27623432874679565,-0.5475356578826904,3378
68917,0.1407504826784134,-0.23282507061958313,-0.477168470621109,3399
68987,0.046782925724983215,-0.36942926049232483,-0.6093737483024597,3436
69057,0.05417069047689438,-0.5383332371711731,-0.8459117412567139,3457
69127,0.14716525375843048,-0.6421212553977966,-1.1171544790267944,3446
69197,0.18094806373119354,-0.5563345551490784,-1.353882074356079,3420
69267,0.11257807910442352,-0.45175012946128845,-1.5314488410949707,3399
69337,-0.09551982581615448,-0.3532019853591919,-1.6072430610656738,3388
69407,-0.44231903553009033,-0.7499548196792603,-1.5307289361953735,3388
69477,-0.38422730565071106,-0.5952346920967102,-1.3585032224655151,3383
69547,-0.6498571038246155,-0.634445071220398,-1.0795825719833374,3373
69617,-0.49783357977867126,-0.38076716661453247,-0.7389993667602539,3373
69687,-0.4250854551792145,-0.43899673223495483,-0.4753652513027191,3383
69757,-0.19094468653202057,-0.3375439941883087,-0.27103400230407715,3378
69827,-0.5832287073135376,-0.19329485297203064,-0.09976637363433838,3383
69897,-0.19563615322113037,-0.25975483655929565,-0.01776779629290104,3404
69967,-0.14588285982608795,-0.376434862613678,-0.053240273147821426,3431
70037,0.12038064002990723,-0.5361496210098267,-0.1643003523349762,3446
70107,0.19038644433021545,-0.4963676929473877,-0.3611143231391907,3441
70177,0.2465202361345291,-0.29920247197151184,-0.5496987104415894,3420
70247,0.24997253715991974,-0.0950670838356018,-0.6335287690162659,3394
70317,0.09144987910985947,0.09138589352369308,-0.6436851024627686,3383
70387,0.2908126413822174,0.17692206799983978,-0.5839013457298279,3373
70457,0.20521219074726105,0.1858253926038742,-0.5314136743545532,3373
70527,0.024846654385328293,0.24939236044883728,-0.46046367287635803,3373
70597,0.23885951936244965,0.15701009333133698,-0.40184324979782104,3378
70667,0.11369407176971436,0.0553012453019619,-0.32692745327949524,3378
70737,0.35158026218414307,-0.06559532880783081,-0.27974310517311096,3399
70807,0.40922221541404724,-0.2755163609981537,-0.3843563199043274,3425
70877,0.541871190071106,-0.34503373503685,-0.5653415322303772,3441
70947,0.546715259552002,-0.35876333713531494,-0.755804181098938,3446
71017,0.5866502523422241,-0.19682562351226807,-0.9433656334877014,3425
71087,0.46625322103500366,-0.02715267986059189,-1.1035246849060059,3399
71157,0.2888047695159912,0.3640260398387909,-1.1331113576889038,3383
71227,0.12224967032670975,0.25277501344680786,-1.032862901687622,3373
71297,0.382295161485672,0.3073183596134186,-0.7622968554496765,3373
71367,0.049262724816799164,0.3258220851421356,-0.3992123007774353,3373
71437,0.17258332669734955,0.21304839849472046,-0.026818107813596725,3367
71507,0.3067263662815094,0.16602705419063568,0.3194471299648285,3373
71577,0.13366535305976868,-0.045820001512765884,0.5505022406578064,3404
71647,0.32460862398147583,-0.3268287181854248,0.6358030438423157,3425
71717,0.3453804850578308,-0.5555664896965027,0.557529091835022,3436
71787,0.5073058009147644,-0.39927738904953003,0.3644036650657654,3425
71857,0.3148682713508606,-0.15492376685142517,0.20079556107521057,3404
71927,0.13727585971355438,0.1413993388414383,0.11897969990968704,3383
71997,0.10252438485622406,0.37398672103881836,0.10715354233980179,3378
72067,-0.03860323503613472,0.3627515435218811,0.16359999775886536,3373
72137,-0.13977141678333282,0.5391159653663635,0.2794985771179199,3373
72207,-0.18337474763393402,0.39702901244163513,0.34219273924827576,3367
72277,-0.19067196547985077,0.29390019178390503,0.4001780152320862,3367
72347,-0.5516256093978882,0.19327539205551147,0.517287015914917,3367
72417,-0.5583407282829285,0.05547231063246727,0.7211213111877441,3373
72487,-0.4357559084892273,-0.20622025430202484,0.9280257821083069,3378
72557,-0.5497560501098633,-0.016766134649515152,1.1653083562850952,3383
72627,-0.4970587193965912,-0.2804658114910126,1.3635164499282837,3378
72697,-0.403845876455307,-0.18978853523731232,1.5325130224227905,3383
72767,-0.21088455617427826,-0.2134825736284256,1.686234474182129,3388
72837,-0.04024500027298927,-0.28402334451675415,1.7694973945617676,3388
72907,0.01766507513821125,-0.21201525628566742,1.8315684795379639,3388
72977,0.061061881482601166,-0.12903954088687897,1.9266444444656372,3394
73047,0.040390465408563614,0.005570563487708569,1.9627869129180908,3394
73117,0.08320718258619308,-0.019455233588814735,2.008822441101074,3388
73187,0.01570509374141693,-0.01751871034502983,2.0379581451416016,3394
73257,0.05223192647099495,-0.052606988698244095,2.06169056892395,3388
73327,0.04055298864841461,-0.13627198338508606,2.0679666996002197,3388
73397,0.0714438334107399,-0.08295895159244537,2.0370938777923584,3383
73467,0.010509106330573559,-0.10027001053094864,2.0348989963531494,3383
73537,0.0474308580160141,0.013831783086061478,1.9942721128463745,3388
73607,-0.10318972915410995,-0.2158133089542389,1.9693101644515991,3388
73677,-0.07605504244565964,-0.2039250135421753,1.893715500831604,3388
73747,-0.07932285219430923,-0.16825856268405914,1.8090113401412964,3383
73817,-0.08217781037092209,-0.0864180475473404,1.7645760774612427,3388
73887,-0.05306960642337799,-0.06572221219539642,1.7420787811279297,3394
73957,0.04998977854847908,-0.05734521895647049,1.7316393852233887,3388
74027,0.0019118142081424594,0.061060741543769836,1.7255882024765015,3388
74097,0.03109043650329113,0.01818164624273777,1.7235145568847656,3383
74167,0.013450619764626026,0.08640376478433609,1.7402523756027222,3383
74237,0.030184581875801086,-0.010323543101549149,1.7714070081710815,3383
74307,-0.023492155596613884,-0.028751235455274582,1.7942273616790771,3388
74377,0.07103307545185089,-0.03551974520087242,1.7761224508285522,3383
74447,0.062050603330135345,-0.03040163964033127,1.809667944908142,3388
74517,0.08443146198987961,-0.02786993980407715,1.7650474309921265,3388
74587,0.0961475819349289,-0.031768541783094406,1.7442996501922607,3388
74657,0.137041836977005,0.02709396742284298,1.7217475175857544,3394
74727,0.05811859667301178,0.02802780270576477,1.6759475469589233,3388
74797,0.0153380511328578,0.041186850517988205,1.6260979175567627,3388
74867,0.043096743524074554,0.02965163066983223,1.5908567905426025,3383
74937,-0.004660790786147118,0.03455007076263428,1.5546140670776367,3388
75007,0.054166700690984726,0.04572354257106781,1.547213077545166,3378
75077,-0.10873027890920639,0.08438234031200409,1.5953348875045776,3383
75147,-0.12246963381767273,0.034360870718955994,1.627973198890686,3383
75217,-0.11716718226671219,0.06821765005588531,1.6258296966552734,3383
75287,-0.1006723940372467,0.01927454024553299,1.6094862222671509,3383
75357,-0.07834626734256744,0.011079277843236923,1.5839402675628662,3388
75427,-0.05868309363722801,-0.011280045844614506,1.5057185888290405,3388
75497,-0.02543349377810955,0.0033195349387824535,1.4312399625778198,3383
75567,-0.0913098156452179,-0.004714654292911291,1.3789873123168945,3383
75637,0.034166354686021805,-0.0955822542309761,1.2970528602600098,3388
75707,-0.061073288321495056,-0.13602867722511292,1.2336697578430176,3383
75777,0.17459343373775482,-0.17993766069412231,1.1858645677566528,3383
75847,0.07259183377027512,-0.17371082305908203,1.1523817777633667,3378
75917,0.08333326131105423,-0.03794640302658081,1.1600451469421387,3383
75987,-0.135576531291008,-0.17424410581588745,1.1658284664154053,3378
76057,-0.10340315848588943,-0.15587320923805237,1.1502567529678345,3383
76127,-0.150168776512146,-0.14767193794250488,1.151017427444458,3383
76197,-0.15149104595184326,-0.07293106615543365,1.1529802083969116,3383
76267,-0.10779859125614166,-0.15342994034290314,1.1402125358581543,3383
76337,-0.03444340452551842,-0.10475050657987595,1.0762253999710083,3383
76407,0.04757515341043472,-0.19320200383663177,0.9929982423782349,3383
76477,0.15265564620494843,-0.05683379992842674,0.9378488659858704,3378
76547,0.1063041090965271,-0.03631319850683212,0.9158368706703186,3383
76617,0.15735045075416565,-0.039372093975543976,0.8592911958694458,3388
76687,0.0984925627708435,0.017231514677405357,0.7950992584228516,3388
76757,0.17573033273220062,0.00985631812363863,0.7176569700241089,3388
76827,0.12223700433969498,-0.09114054590463638,0.620173454284668,3399
76897,0.20974493026733398,-0.007124041207134724,0.48332709074020386,3420
76967,0.2803493142127991,-0.053938355296850204,0.2593885660171509,3436
77037,0.31800052523612976,0.025035060942173004,0.00821953546255827,3436
77107,0.14566732943058014,0.15685415267944336,-0.2455013245344162,3409
77177,0.05368209257721901,0.2665185332298279,-0.4163525402545929,3394
77247,-0.09207743406295776,0.37630200386047363,-0.46301886439323425,3383
77317,-0.39592301845550537,0.375628262758255,-0.37447261810302734,3378
77387,-0.4697081446647644,0.30644336342811584,-0.1866329312324524,3367
77457,-0.6657916307449341,0.42501339316368103,0.08103100955486298,3362
77527,-0.6268754005432129,0.29967808723449707,0.3653739392757416,3362
77597,-0.557088315486908,0.08109476417303085,0.5833232402801514,3362
77667,-0.3167344629764557,-0.054830070585012436,0.6740943193435669,3367
77737,-0.14464455842971802,-0.15110501646995544,0.6727517247200012,3362
77807,-0.1289796531200409,-0.26567018032073975,0.5643089413642883,3367
77877,-0.12480375915765762,-0.20866361260414124,0.42573362588882446,3373
77947,-0.025028137490153313,-0.1829412877559662,0.292184978723526,3383
78017,-0.078423410654068,-0.25850462913513184,0.11376363784074783,3383
78087,-9.52493937802501e-05,-0.2223331183195114,-0.06795158237218857,3383
78157,-0.15976542234420776,-0.22482097148895264,-0.23587873578071594,3383
78227,-0.07868120074272156,-0.23530739545822144,-0.32227325439453125,3383
78297,-0.0041337041184306145,-0.19829769432544708,-0.42457231879234314,3383
78367,-0.0021614886354655027,-0.0636613517999649,-0.5034289956092834,3383
78437,0.10106884688138962,-0.09447270631790161,-0.6060487627983093,3383
78507,-0.044286057353019714,-0.17135488986968994,-0.6713107228279114,3388
78577,0.005206770729273558,-0.23167750239372253,-0.7281428575515747,3399
78647,-0.006792803760617971,-0.250900000333786,-0.8358895778656006,3425
78717,0.10530012845993042,-0.25107499957084656,-1.0063986778259277,3441
78787,0.20546691119670868,-0.10314279794692993,-1.2237637042999268,3441
78857,0.23861685395240784,0.018585165962576866,-1.4462310075759888,3415
78927,0.13840936124324799,0.26695898175239563,-1.6040656566619873,3394
78997,-0.11874858289957047,0.41466712951660156,-1.6927353143692017,3373
79067,0.043540555983781815,0.5335039496421814,-1.7120169401168823,3362
79137,-0.8577846884727478,0.29868122935295105,-1.6354044675827026,3362
79207,-0.6697307825088501,0.3041269779205322,-1.541317105293274,3362
79277,-0.5416038632392883,-0.02035600133240223,-1.4684075117111206,3362
79347,-0.4023987352848053,0.1745556741952896,-1.4243757724761963,3367
79417,-0.37606313824653625,0.13273315131664276,-1.3803993463516235,3357
79487,-0.14519917964935303,0.03896660730242729,-1.2723748683929443,3362
79557,-0.1227341815829277,0.0017968775937333703,-1.1776409149169922,3367
79627,0.00969643797725439,-0.10219711065292358,-1.1083382368087769,3373
79697,0.07044462859630585,-0.16565193235874176,-1.0979903936386108,3378
79767,0.4055565595626831,-0.2410297840833664,-1.1415272951126099,3378
79837,0.28849223256111145,-0.20680135488510132,-1.1922088861465454,3383
79907,0.349508136510849,-0.26422998309135437,-1.2478172779083252,3383
79977,0.21556974947452545,-0.3578451871871948,-1.3136430978775024,3383
80047,0.18994612991809845,-0.32897013425827026,-1.3583534955978394,3404
80117,0.12199194729328156,-0.42898714542388916,-1.453890085220337,3425
80187,0.1587306708097458,-0.43671831488609314,-1.5999736785888672,3436
80257,0.1062268316745758,-0.42948874831199646,-1.8067270517349243,3436
80327,0.08946087956428528,-0.25699999928474426,-2.0276777744293213,3415
80397,-0.026099663227796555,0.04255705699324608,-2.261178970336914,3394
80467,-0.17345090210437775,0.25010061264038086,-2.4580061435699463,3373
80537,-0.16154922544956207,0.3050136864185333,-2.4935433864593506,3362
80607,0.009353681467473507,0.43274742364883423,-2.4897360801696777,3357
80677,-0.41431930661201477,-0.002831176156178117,-2.4715754985809326,3362
80747,-0.403770387172699,-0.056215669959783554,-2.396143674850464,3362
80817,-0.5399841070175171,-0.19803129136562347,-2.357229709625244,3362
80887,-0.5201899409294128,-0.14422392845153809,-2.3044564723968506,3357
80957,-0.49658486247062683,-0.14620864391326904,-2.265568971633911,3373
81027,-0.2661319077014923,-0.14221806824207306,-2.263911247253418,3373
81097,-0.2020329087972641,-0.06721700727939606,-2.270467758178711,3383
81167,-0.1193503588438034,-0.01009818259626627,-2.222430944442749,3373
81237,0.029173776507377625,0.01570715382695198,-2.218596935272217,3378
81307,0.057075679302215576,0.12500613927841187,-2.2115843296051025,3378
81377,0.2003219574689865,0.09970058500766754,-2.17950439453125,3378
81447,0.17918038368225098,0.2485046535730362,-2.126441240310669,3378
81517,0.21590463817119598,0.1659904569387436,-2.0797064304351807,3378
81587,0.14560286700725555,0.24332165718078613,-2.0110628604888916,3383
81657,0.15444782376289368,0.2997288405895233,-1.9466228485107422,3373
81727,0.150491863489151,0.3078538477420807,-1.861724615097046,3373
81797,0.06258708238601685,0.25409480929374695,-1.7939279079437256,3383
81867,0.08319638669490814,0.05543754994869232,-1.779057264328003,3404
81937,0.08049178868532181,-0.06310422718524933,-1.6174709796905518,3415
82007,0.2185455709695816,-0.10842049866914749,-1.0779342651367188,3431
82077,0.17825527489185333,-0.140822634100914,-0.12874287366867065,3441
82147,0.26435136795043945,-0.10727594047784805,1.2365056276321411,3441
82217,0.2160986065864563,-0.07465121150016785,2.68249773979187,3441
82287,0.12604187428951263,0.05949050933122635,3.819870948791504,3420
82357,-0.14821156859397888,0.22305995225906372,4.615504264831543,3383
82427,0.0021628111135214567,0.6928338408470154,5.254351615905762,3357
82497,-0.014738672412931919,0.5805729031562805,5.790304183959961,3346
82567,0.3545539677143097,0.7723051905632019,6.247679710388184,3341
82637,0.18719545006752014,0.05013522133231163,6.596970081329346,3341
82707,0.3921511471271515,0.31568318605422974,7.155301570892334,3341
82777,-0.3409178555011749,-1.373671531677246,7.939380645751953,3346
82847,0.6567012071609497,-0.7288312315940857,8.885913848876953,3362
82917,-0.10330323874950409,-1.059618353843689,9.692667961120605,3378
82987,-1.0853753089904785,-0.3395134210586548,10.207374572753906,3394
83057,-1.1478064060211182,-0.6614856123924255,10.511481285095215,3409
83127,-1.594704270362854,0.3365119397640228,10.553385734558105,3420
83197,-1.147239089012146,0.2091972827911377,10.281826972961426,3425
83267,-0.33827656507492065,0.41231444478034973,10.030677795410156,3420
83337,0.3428928554058075,0.043069422245025635,9.688711166381836,3431
83407,0.654906690120697,0.056433193385601044,9.277456283569336,3409
83477,0.8419045209884644,-0.6917887330055237,8.900035858154297,3399
83547,1.1643701791763306,-0.35206615924835205,8.564471244812012,3394
83617,1.1418577432632446,-0.2203928679227829,8.306830406188965,3394
83687,1.2591930627822876,-0.15048901736736298,8.211262702941895,3388
83757,0.06004781275987625,-0.2343025505542755,8.270648956298828,3399
83827,0.5375526547431946,-0.05310685560107231,8.397017478942871,3404
83897,-1.1857717037200928,0.34309569001197815,8.6552095413208,3409
83967,-0.40649306774139404,0.5446649193763733,8.8980073928833,3409
84037,-1.7758574485778809,0.6961357593536377,9.178478240966797,3415
84107,-0.36185136437416077,0.37782251834869385,9.359458923339844,3409
84177,-0.9351097345352173,0.36798450350761414,9.655466079711914,3409
84247,-0.010241434909403324,-0.4677295684814453,9.732291221618652,3404
84317,0.41233205795288086,-0.78449946641922,9.79268741607666,3409
84387,1.2725942134857178,-0.7143902778625488,9.769210815429688,3404
84457,0.9189942479133606,-1.201141595840454,9.655813217163086,3404
84527,0.7621638178825378,-0.7182990908622742,9.420332908630371,3404
84597,0.5274522304534912,-0.03788459300994873,9.193306922912598,3404
84667,-0.016583159565925598,0.5673113465309143,9.111949920654297,3409
84737,-0.587386429309845,1.4674426317214966,9.104118347167969,3409
84807,-1.984352946281433,1.8602306842803955,9.18421459197998,3409
84877,-1.1634584665298462,1.5847889184951782,9.456026077270508,3409
84947,-1.6110557317733765,0.8381766676902771,9.953362464904785,3731
85017,-8.117035865783691,0.2675720453262329,11.988632202148438,3742
85087,0.08138224482536316,0.01704750396311283,13.784393310546875,3742
85157,-0.6086525321006775,-0.24391227960586548,14.76307201385498,3747
85227,-0.21922647953033447,-0.32553115487098694,14.6798734664917,3747
85297,-0.11558995395898819,-0.2670663893222809,14.557814598083496,3753
85367,-0.010414475575089455,-0.24113225936889648,14.469703674316406,3753
85437,0.11646855622529984,-0.26118984818458557,14.394754409790039,3747
85507,0.19662195444107056,-0.19514791667461395,14.321022033691406,3753
85577,0.215465247631073,-0.15534944832324982,14.238125801086426,3758
85647,0.33493539690971375,-0.11357523500919342,14.177068710327148,3758
85717,0.29980897903442383,-0.061076570302248,14.098451614379883,3758
85787,0.2123621553182602,-0.06206154823303223,13.976754188537598,3758
85857,0.27800506353378296,-0.03048964962363243,13.904751777648926,3763
85927,0.35186833143234253,-0.015089953318238258,13.822906494140625,3758
85997,0.42220577597618103,0.004479090683162212,13.7347412109375,3763
86067,0.41664454340934753,0.03473186865448952,13.648266792297363,3763
86137,0.5321503281593323,0.06232966110110283,13.570419311523438,3763
86207,0.4079359173774719,0.06225873902440071,13.472515106201172,3763
86277,0.4768006503582001,0.05846763029694557,13.380313873291016,3768
86347,0.4338610768318176,0.15254662930965424,13.315980911254883,3768
86417,0.4433324635028839,0.12121997773647308,13.215185165405273,3768
86487,0.5494767427444458,0.110389344394207,13.114768981933594,3768
86557,0.53776615858078,0.13070659339427948,13.026288032531738,3768
86627,0.4740019738674164,0.06187004595994949,12.92080020904541,3774
86697,0.4922008514404297,0.10200580209493637,12.839859008789062,3768
86767,0.46781373023986816,0.11717239767313004,12.754508018493652,3774
86837,0.31081727147102356,0.13416405022144318,12.673626899719238,3774
86907,0.31763333082199097,0.1401614248752594,12.587726593017578,3779
86977,0.3776390254497528,0.061030205339193344,12.49289321899414,3774
87047,0.2944079637527466,0.06510968506336212,12.405377388000488,3779
87117,0.38637760281562805,0.05184830352663994,12.313321113586426,3774
87187,0.4445875287055969,0.07035466283559799,12.227060317993164,3779
87257,0.4137960374355316,0.04164170101284981,12.141580581665039,3779
87327,0.5593239665031433,0.06947343051433563,12.058560371398926,3779
87397,0.5005450248718262,0.09724824130535126,11.976901054382324,3779
87467,0.49400466680526733,0.09540113806724548,11.891663551330566,3779
87537,0.4502936005592346,0.0822608470916748,11.808547973632812,3784
87607,0.4816828966140747,0.06995969265699387,11.724372863769531,3784
87677,0.48854967951774597,0.07716409116983414,11.641175270080566,3779
87747,0.5311399698257446,0.08953719586133957,11.5602388381958,3779
87817,0.5580462217330933,0.07952418923377991,11.480340957641602,3784
87887,0.4492802023887634,0.09095418453216553,11.400197982788086,3784
87957,0.5150381922721863,0.10489526391029358,11.321442604064941,3784
88027,0.4672875702381134,0.08982276916503906,11.242759704589844,3784
