timeStamp,stateEstimate.roll,stateEstimate.pitch,stateEstimate.yaw,pm.vbatMV
120460,0.19138984382152557,0.3087739050388336,0.41048628091812134,3927
120530,0.19236503541469574,0.3044780492782593,0.41046983003616333,3927
120600,0.19235409796237946,0.31118783354759216,0.40754494071006775,3927
120670,0.19071121513843536,0.30698850750923157,0.4072294235229492,3927
120740,0.19223491847515106,0.30469590425491333,0.40668511390686035,3927
120810,0.19038662314414978,0.30451157689094543,0.4045203626155853,3921
120880,0.18844722211360931,0.2930602431297302,0.40257635712623596,3927
120950,0.19031766057014465,0.29606351256370544,0.4009230434894562,3927
121020,0.1931888461112976,0.3030683994293213,0.3971547484397888,3927
121090,0.19266918301582336,0.29387786984443665,0.3961956799030304,3927
121160,0.19141952693462372,0.290230929851532,0.3944711685180664,3927
121230,0.18862681090831757,0.2837808132171631,0.3943384289741516,3927
121300,0.18916310369968414,0.2900236248970032,0.39285147190093994,3927
121370,0.0021703552920371294,-0.0011060613906010985,0.0011696412693709135,3927
121440,0.0019065146334469318,0.0013718904228881001,0.0020233953837305307,3927
121510,-0.0008801252115517855,0.003242237726226449,0.0042223744094371796,3927
121580,-0.0014014345360919833,0.002515104366466403,0.004839816130697727,3927
121650,-0.0025967229157686234,0.0005833530449308455,0.003360715229064226,3927
121720,-0.0019367627101019025,0.0032637417316436768,0.004564257804304361,3927
121790,-0.004343016538769007,0.0035553895868360996,0.004349893424659967,3927
121860,-0.003902045078575611,0.0014437169302254915,0.002170553198084235,3927
121930,-0.0038756730500608683,0.004549387842416763,0.005134978331625462,3927
122000,-0.0012559073511511087,0.0010573735926300287,0.007721067406237125,3927
122070,-0.0004918601480312645,0.001595550449565053,0.0075954291969537735,3927
122140,-0.001997134415432811,-0.004105244297534227,0.011371430940926075,3927
122210,-0.0036635217256844044,-0.001661931280978024,0.013819923624396324,3927
122280,-0.004591207019984722,-0.004351719282567501,0.01561615988612175,3927
122350,-0.0027317004278302193,-0.004059340339154005,0.017455818131566048,3927
122420,0.0022300651762634516,0.011163325980305672,-0.02012597769498825,3146
122490,-0.013107924722135067,0.07035202533006668,-0.20888619124889374,3314
122560,0.23470553755760193,2.2057137489318848,0.058800987899303436,3462
122630,0.3135150372982025,0.09868744015693665,0.4208245575428009,3504
122700,1.0489935874938965,-0.038879670202732086,0.9217003583908081,3510
122770,0.6173115968704224,0.6512542963027954,1.3466171026229858,3515
122840,0.7472023367881775,0.20178388059139252,1.7094308137893677,3536
122910,0.022780561819672585,-0.15244144201278687,2.0312740802764893,3557
122980,-0.4585404694080353,-0.0482310988008976,2.3187551498413086,3563
123050,-0.954668402671814,-0.06771844625473022,2.3975460529327393,3547
123120,-0.5498548746109009,0.2858281433582306,2.2343826293945312,3541
123190,-0.6117538213729858,0.5057141780853271,1.7255030870437622,3520
123260,-0.9524667263031006,1.1891942024230957,1.0648623704910278,3515
123330,-0.8538841009140015,1.0394928455352783,0.6213249564170837,3504
123400,-1.0237939357757568,1.0847722291946411,0.539134681224823,3504
123470,-0.9380518198013306,0.9561617374420166,0.7160024046897888,3504
123540,-0.7368610501289368,0.6077103018760681,1.0505554676055908,3499
123610,-0.5184512138366699,0.749664843082428,1.3611184358596802,3504
123680,-0.2566794157028198,0.467179536819458,1.5843851566314697,3504
123750,-0.2436702400445938,0.5396287441253662,1.570256233215332,3499
123820,-0.17479583621025085,0.41769060492515564,1.3989230394363403,3504
123890,-0.4107005000114441,0.2696695625782013,1.176918864250183,3499
123960,-0.33466604351997375,0.25454121828079224,1.442858338356018,3499
124030,-0.3644908666610718,0.1745762676000595,2.3073573112487793,3504
124100,-0.19733068346977234,0.40432387590408325,3.9365639686584473,3499
124170,-0.08102621883153915,0.06878045946359634,6.25386381149292,3499
124240,-0.19888828694820404,0.14365331828594208,8.873210906982422,3494
124310,-0.027511149644851685,-0.011584112420678139,11.402941703796387,3494
124380,0.1778745949268341,-0.1977682262659073,13.385763168334961,3494
124450,0.3266788721084595,-0.30856266617774963,14.851581573486328,3494
124520,0.4258902370929718,-0.2041277140378952,15.867910385131836,3489
124590,0.558138370513916,-0.14738622307777405,16.515623092651367,3494
124660,0.5794398784637451,0.005692595150321722,16.90060806274414,3489
124730,0.4500817358493805,0.1296016275882721,17.075220108032227,3483
124800,0.3095093071460724,0.3242672383785248,17.145767211914062,3483
124870,-0.005398534703999758,0.36236095428466797,17.172691345214844,3483
124940,-0.07291142642498016,0.5310920476913452,17.155288696289062,3489
125010,-0.008463366888463497,0.39402642846107483,17.089399337768555,3483
125080,-0.06804005056619644,0.28962478041648865,17.040239334106445,3478
125150,-0.12732817232608795,-1.0708093643188477,16.999034881591797,3478
125220,0.01601957157254219,-2.2498011589050293,16.96912956237793,3473
125290,-0.23287954926490784,-2.0252106189727783,16.89720344543457,3468
125360,-0.06342379003763199,-4.036683559417725,16.875038146972656,3473
125430,-0.1305432915687561,-5.1486382484436035,16.848337173461914,3468
125500,0.466342568397522,-6.077836990356445,16.815183639526367,3468
125570,2.3873698711395264,-6.349740505218506,16.762048721313477,3462
125640,2.478351354598999,-5.511641502380371,16.68537139892578,3468
125710,2.772292375564575,-4.503055095672607,16.596792221069336,3473
125780,2.2935450077056885,-3.157508373260498,16.457029342651367,3468
125850,1.9340695142745972,-1.951285719871521,16.30786895751953,3478
125920,1.356397032737732,-1.0139548778533936,16.125106811523438,3473
125990,0.95918208360672,-0.2929593026638031,15.95116138458252,3478
126060,0.45364144444465637,0.1936330497264862,15.822786331176758,3473
126130,0.20765230059623718,0.4542485773563385,15.718202590942383,3468
126200,-0.06122391298413277,0.4813772439956665,15.563802719116211,3468
126270,0.02569628693163395,0.3216498792171478,15.367913246154785,3462
126340,0.1357097327709198,0.07515569776296616,15.116900444030762,3457
126410,0.17057818174362183,0.08348719775676727,14.909344673156738,3457
126480,0.2938268482685089,-0.30407825112342834,14.735051155090332,3462
126550,0.4139266014099121,-0.5631277561187744,14.612190246582031,3462
126620,0.482619971036911,-0.6983911395072937,14.565979957580566,3457
126690,0.4919564723968506,-0.7390625476837158,14.549234390258789,3457
126760,0.6149353981018066,-0.8353788256645203,14.583476066589355,3452
126830,0.45911967754364014,-0.8709918856620789,14.632494926452637,3452
126900,0.32624351978302,-0.6918730735778809,14.76276683807373,3457
126970,0.23535674810409546,-0.8203464150428772,14.920709609985352,3462
127040,0.05121941864490509,-0.6094775199890137,15.071270942687988,3452
127110,-0.11180157959461212,-0.46213874220848083,15.148079872131348,3457
127180,-0.0021112668327987194,-0.386047899723053,15.215274810791016,3452
127250,0.043111737817525864,-0.26836100220680237,15.232010841369629,3452
127320,0.126519575715065,-0.232463076710701,15.272112846374512,3452
127390,0.15275174379348755,-0.39787015318870544,15.341565132141113,3452
127460,-1.9240236282348633,0.04885537549853325,15.398175239562988,3446
127530,-2.386099100112915,0.6921125650405884,15.44510555267334,3446
127600,-2.7519078254699707,1.2180256843566895,15.448615074157715,3446
127670,-2.45702862739563,1.989552617073059,15.4043550491333,3446
127740,-2.0246143341064453,2.3834822177886963,15.349226951599121,3446
127810,-1.3968875408172607,2.783987283706665,15.300712585449219,3441
127880,-0.7284886837005615,4.1137895584106445,15.287357330322266,3436
127950,-0.3444727659225464,6.285135269165039,15.338523864746094,3436
128020,0.06725335121154785,5.838778972625732,15.44744873046875,3436
128090,0.21539559960365295,5.4513444900512695,15.508793830871582,3436
128160,0.41001683473587036,4.019813060760498,15.54566478729248,3431
128230,0.36075064539909363,2.869760274887085,15.574845314025879,3431
128300,0.19747652113437653,1.840442180633545,15.56845760345459,3431
128370,0.10758709162473679,0.8694279789924622,15.557968139648438,3431
128440,0.02417665533721447,0.1290232390165329,15.548800468444824,3436
128510,-0.03781961277127266,-0.22049634158611298,15.514986991882324,3436
128580,-0.040180157870054245,-0.6664329171180725,15.486539840698242,3436
128650,-0.27680811285972595,-0.41679444909095764,15.45508861541748,3436
128720,-0.15933513641357422,-0.524284839630127,15.41987133026123,3436
128790,-0.2557673156261444,-0.3916875123977661,15.404932022094727,3436
128860,-0.12097387760877609,-3.0770559310913086,15.42099666595459,3436
128930,-0.06675293296575546,-4.819214820861816,15.383890151977539,3431
129000,-0.13479673862457275,-6.020985126495361,15.352818489074707,3431
129070,0.051604803651571274,-6.781008243560791,15.334373474121094,3431
129140,0.06701148301362991,-6.27426815032959,15.304793357849121,3420
129210,0.1016722172498703,-5.087668418884277,15.285408973693848,3420
129280,0.04986871778964996,-2.4910175800323486,15.23735523223877,3425
129350,-0.003939497284591198,0.36298835277557373,15.150572776794434,3431
129420,-0.0027690341230481863,5.292698383331299,15.075413703918457,3431
129490,-0.1298961043357849,7.681702613830566,15.0138578414917,3425
129560,-0.09637071937322617,8.292387962341309,14.958721160888672,3425
129630,-0.22395126521587372,7.664456367492676,14.915343284606934,3425
129700,-0.013800643384456635,6.358765125274658,14.871305465698242,3415
129770,-0.18004582822322845,4.603358268737793,14.849190711975098,3415
129840,-0.10883986204862595,2.8399322032928467,14.825004577636719,3415
129910,-0.15115860104560852,1.4259995222091675,14.786787033081055,3409
129980,-0.05902187526226044,0.0775110125541687,14.802180290222168,3420
130050,-0.014761244878172874,-0.6441094875335693,14.797121047973633,3425
130120,-0.017800239846110344,-1.2842633724212646,14.830851554870605,3425
130190,-0.035509489476680756,-1.1416550874710083,14.962343215942383,3420
130260,0.15523254871368408,-1.2176737785339355,15.661441802978516,3420
130330,0.08499834686517715,-0.5818548202514648,17.09222984313965,3420
130400,0.028742048889398575,-0.3264693319797516,19.232624053955078,3415
130470,-0.012998786754906178,-0.05086887627840042,21.76630973815918,3415
130540,-0.1447352021932602,0.227453351020813,24.13210678100586,3415
130610,-0.2805841267108917,0.4117673635482788,25.899639129638672,3420
130680,-0.2194022387266159,0.49473127722740173,27.142393112182617,3420
130750,-0.1635444611310959,0.5949083566665649,27.99844741821289,3415
130820,-0.05780285969376564,0.46589022874832153,28.550195693969727,3409
130890,-0.06466510891914368,0.5302586555480957,28.894655227661133,3409
130960,0.022890059277415276,0.295966237783432,29.131587982177734,3409
131030,0.07456379383802414,-2.7514543533325195,29.27670669555664,3409
131100,0.1913258284330368,-4.1247076988220215,29.35268211364746,3415
131170,0.1485671103000641,-5.744574069976807,29.404170989990234,3409
131240,0.16189973056316376,-6.28864049911499,29.433162689208984,3404
131310,1.7313035726547241,-6.380066394805908,29.456769943237305,3404
131380,0.9554998874664307,-5.674930095672607,29.305665969848633,3409
131450,0.17818079888820648,-3.4924824237823486,29.187889099121094,3409
131520,-0.17169205844402313,-1.1733468770980835,29.00452995300293,3399
131590,-0.5109522342681885,4.8216328620910645,28.82347869873047,3415
131660,-0.6704683899879456,6.956618309020996,28.621749877929688,3409
131730,-0.49728652834892273,8.036933898925781,28.39650535583496,3409
131800,-0.40222182869911194,7.431203365325928,28.253252029418945,3404
131870,-0.19042150676250458,6.213457107543945,28.184059143066406,3399
131940,-0.09278428554534912,4.384267330169678,28.163848876953125,3399
132010,0.04563871771097183,2.661149263381958,28.165767669677734,3399
132080,0.15447933971881866,1.043871283531189,28.242643356323242,3399
132150,0.18453651666641235,-0.19545012712478638,28.353670120239258,3404
132220,0.26387298107147217,-1.0004839897155762,28.475858688354492,3409
132290,0.3081960082054138,-1.3561760187149048,28.600576400756836,3409
132360,0.27705830335617065,-1.287973165512085,28.688583374023438,3404
132430,0.2324153631925583,-1.1745373010635376,28.700580596923828,3404
132500,0.15195751190185547,-0.8909121155738831,28.666854858398438,3399
132570,0.19799117743968964,-0.5468466877937317,28.610370635986328,3399
132640,0.08595231175422668,-0.2662033140659332,28.552413940429688,3399
132710,0.03129385784268379,0.020008353516459465,28.48847198486328,3409
132780,-0.06723828613758087,0.3108200132846832,28.431739807128906,3409
132850,-0.045095983892679214,0.4786171615123749,28.377870559692383,3404
132920,-0.08635507524013519,0.40651822090148926,28.32723045349121,3404
132990,-0.19660091400146484,0.44991573691368103,28.26543426513672,3404
133060,-0.2442832738161087,-1.9329543113708496,28.220291137695312,3399
133130,-0.11904457211494446,-4.014434814453125,28.178634643554688,3388
133200,-0.2611531615257263,-5.552252292633057,28.187925338745117,3394
133270,1.3111402988433838,-6.464653015136719,28.26143455505371,3394
133340,2.2875239849090576,-6.418542385101318,28.2169246673584,3394
133410,2.14544415473938,-5.627050876617432,28.18533706665039,3399
133480,-0.07322851568460464,-3.3679473400115967,28.085493087768555,3399
133550,-0.6668485403060913,0.17586557567119598,28.04292869567871,3404
133620,-1.5477651357650757,3.241806983947754,27.97712516784668,3404
133690,-1.676479697227478,4.611943244934082,27.819656372070312,3399
133760,-1.8131378889083862,5.173383712768555,27.58949089050293,3399
133830,-1.4856704473495483,4.6497039794921875,27.26566505432129,3399
133900,-0.9335420727729797,3.757011890411377,26.91383171081543,3388
133970,-0.46205657720565796,2.5990371704101562,26.62009048461914,3388
134040,0.02731138840317726,1.4592958688735962,26.39397430419922,3388
134110,0.344917356967926,0.4880353510379791,26.245166778564453,3394
134180,0.643146276473999,-0.3681941330432892,26.162208557128906,3388
134250,0.7778820991516113,-0.858455240726471,26.030282974243164,3388
134320,0.5537542700767517,-1.1837469339370728,25.890085220336914,3394
134390,0.448809951543808,-1.1825138330459595,25.776939392089844,3388
134460,0.25803840160369873,-1.1473820209503174,25.800294876098633,3388
134530,0.30452579259872437,-1.045040249824524,25.890565872192383,3388
134600,0.11159717291593552,-0.8480693697929382,26.032024383544922,3394
134670,0.03553272783756256,-0.7902437448501587,26.156051635742188,3388
134740,0.10337959975004196,-0.45320314168930054,26.3022518157959,3394
134810,0.17088648676872253,-0.19792699813842773,26.427865982055664,3394
134880,0.12323416024446487,0.10033728927373886,26.48406982421875,3388
134950,-0.025114325806498528,0.4241738021373749,26.548751831054688,3383
135020,-0.06536166369915009,0.3616308569908142,26.616004943847656,3383
135090,-0.05678907036781311,0.33893901109695435,26.74789810180664,3383
135160,0.05545590817928314,0.09149742126464844,26.906002044677734,3378
135230,0.05146360769867897,0.0776430144906044,27.12974739074707,3378
135300,0.0848599299788475,-0.0072202314622700214,27.32223892211914,3378
135370,-0.04943343997001648,-0.03512357175350189,27.317855834960938,3383
135440,0.08391822129487991,-0.2795765995979309,27.093040466308594,3378
135510,0.16780440509319305,0.015971466898918152,26.796361923217773,3378
135580,0.015574559569358826,0.10047035664319992,26.65978240966797,3378
135650,-0.1896083652973175,0.3893813490867615,26.680755615234375,3383
135720,-0.01873260736465454,0.5126890540122986,26.84062957763672,3388
135790,0.021175621077418327,0.5579901933670044,27.066213607788086,3388
135860,0.3491671085357666,0.15249034762382507,27.421613693237305,3394
135930,0.6797484755516052,-0.13866287469863892,28.158554077148438,3388
136000,0.5075279474258423,-0.06104755401611328,28.8092098236084,3378
136070,0.49752652645111084,-0.06095723435282707,29.701250076293945,3378
136140,-0.048897210508584976,-0.042811717838048935,30.227943420410156,3378
136210,-0.4454304873943329,0.30941319465637207,30.75336265563965,3383
136280,-0.4583936631679535,-0.2358410805463791,31.056550979614258,3383
136350,-0.8517202138900757,-0.23576031625270844,31.112247467041016,3383
136420,-0.8354904055595398,-0.40834346413612366,30.7142391204834,3388
136490,-0.46461692452430725,-0.7285839915275574,29.290742874145508,3388
136560,-0.12952248752117157,-0.6379584074020386,27.156761169433594,3388
136630,0.2569323182106018,-0.4088156819343567,24.599929809570312,3378
136700,0.5666988492012024,0.027677685022354126,21.65239143371582,3383
136770,0.8484093546867371,-0.4477764964103699,18.5985164642334,3378
136840,1.0820045471191406,-0.397497296333313,15.912444114685059,3378
136910,0.8194616436958313,-0.32939764857292175,14.072981834411621,3378
136980,0.9124683737754822,-0.36503419280052185,12.833993911743164,3383
137050,1.032214879989624,-0.264517217874527,12.046672821044922,3383
137120,0.9272440075874329,-0.47478634119033813,11.760734558105469,3383
137190,0.7326754927635193,-0.45708179473876953,11.748443603515625,3388
137260,0.49190956354141235,-0.3437129259109497,11.990036964416504,3388
137330,0.2791757583618164,-0.17126840353012085,12.230775833129883,3388
137400,-0.13357804715633392,0.15028171241283417,12.228487014770508,3388
137470,-0.3863697052001953,0.24187573790550232,11.987924575805664,3383
137540,-0.5631042122840881,0.12572304904460907,11.786447525024414,3378
137610,-0.5164396166801453,0.22299155592918396,11.506933212280273,3373
137680,-0.7639862895011902,0.10718359798192978,11.164931297302246,3373
137750,-0.6403129696846008,0.11031541228294373,10.91664981842041,3367
137820,-0.5187564492225647,-0.07068140804767609,10.806233406066895,3367
137890,-0.384696900844574,1.00889253616333,10.940917015075684,3373
137960,-0.5500459671020508,1.207059383392334,11.318171501159668,3378
138030,-0.3745092749595642,-2.9490966796875,11.618926048278809,3373
138100,-0.5129888653755188,-4.436301231384277,11.890091896057129,3373
138170,-0.10707029700279236,-5.692551136016846,12.12510871887207,3367
138240,-0.12216763943433762,-5.457373142242432,12.198667526245117,3367
138310,-0.05307939648628235,-4.858243942260742,12.226563453674316,3362
138380,-0.13800963759422302,-3.615701198577881,12.146347045898438,3367
138450,-0.03339081257581711,-2.4909963607788086,12.00108528137207,3367
138520,0.027561970055103302,-1.3942101001739502,11.877429962158203,3367
138590,-0.0269752349704504,-0.7370994091033936,11.66232967376709,3373
138660,-0.023696180433034897,-0.06041935831308365,11.428906440734863,3373
138730,0.03059379942715168,0.24544034898281097,11.237221717834473,3373
138800,0.11543820798397064,0.5435185432434082,11.095714569091797,3367
138870,0.014749555848538876,0.5016031861305237,11.126815795898438,3367
138940,-0.06750364601612091,0.31684619188308716,11.254966735839844,3362
139010,-0.0734560489654541,0.23406784236431122,11.349492073059082,3362
139080,-0.02629929967224598,-0.14261619746685028,11.402624130249023,3373
139150,-0.08702537417411804,-0.2504110634326935,11.345328330993652,3373
139220,-0.06301487237215042,-0.501292884349823,11.208969116210938,3373
139290,0.01390034705400467,-0.671478271484375,11.082858085632324,3373
139360,-0.0035915845073759556,-0.7126734256744385,10.911943435668945,3367
139430,-0.039325714111328125,-0.6332208514213562,10.742982864379883,3367
139500,-0.0916944071650505,-0.705425500869751,10.648661613464355,3362
139570,-0.07568417489528656,-0.6332212686538696,10.523656845092773,3357
139640,-0.12695857882499695,-0.5666525363922119,10.394094467163086,3357
139710,-0.12262124568223953,-0.5897277593612671,10.30750560760498,3362
139780,0.04065041244029999,-0.5870227217674255,10.22141170501709,3357
139850,0.05432329326868057,-0.5557605624198914,10.17931079864502,3362
139920,0.14307376742362976,-0.4348108470439911,10.157605171203613,3362
139990,0.21532601118087769,-0.267794132232666,10.066917419433594,3367
140060,0.5589261054992676,-0.26958635449409485,9.948600769042969,3367
140130,0.8374057412147522,-0.20394515991210938,9.770389556884766,3367
140200,1.0121341943740845,-0.030025159940123558,9.622529983520508,3362
140270,0.9171797633171082,-0.13810116052627563,9.576273918151855,3362
140340,0.7948099374771118,-0.28907477855682373,9.652215957641602,3362
140410,0.3324261009693146,-0.23677484691143036,9.902783393859863,3357
140480,0.03515886887907982,-0.35760483145713806,10.257415771484375,3362
140550,-0.2058989554643631,-0.6430557370185852,10.636672973632812,3362
140620,-0.5355831980705261,-0.56367427110672,11.072467803955078,3362
140690,-0.9366766214370728,-0.39295417070388794,11.500381469726562,3357
140760,-0.9705844521522522,-0.2291496843099594,11.78980541229248,3357
140830,-0.904718279838562,-0.016308149322867393,11.977432250976562,3367
140900,-0.7572963237762451,-0.11312603950500488,12.060284614562988,3394
140970,-0.5483217239379883,-0.26643499732017517,12.057321548461914,3415
141040,-0.47996073961257935,-0.20766489207744598,12.069849014282227,3431
141110,-0.37735357880592346,-0.18028585612773895,12.030485153198242,3436
141180,-0.323714017868042,-6.343893619487062e-05,11.96697998046875,3431
141250,-0.2383144050836563,0.21230661869049072,11.879684448242188,3394
141320,-0.08721966296434402,0.4606097936630249,11.830459594726562,3357
141390,0.10457605123519897,0.48921462893486023,11.988106727600098,3336
141460,0.27828657627105713,0.23512479662895203,12.3413724899292,3325
141530,0.4157683849334717,0.05065888166427612,12.647089004516602,3320
141600,0.8614741563796997,-0.21159636974334717,12.836984634399414,3320
141670,0.060538776218891144,-1.074158787727356,12.97138786315918,3325
141740,-0.3322203755378723,-0.4134557843208313,13.049962997436523,3325
141810,-0.4488738179206848,-1.2115546464920044,13.338006973266602,3325
141880,-1.3081530332565308,0.47067445516586304,13.959246635437012,3330
141950,-1.4765735864639282,2.2367539405822754,14.706418991088867,3346
142020,-0.9759293794631958,4.632277011871338,15.07093620300293,3378
142090,-0.8645440936088562,8.229134559631348,14.996391296386719,3409
142160,0.660606324672699,11.80103874206543,14.686450004577637,3425
142230,0.5855817794799805,11.703200340270996,14.293139457702637,3409
142300,1.2747353315353394,9.560440063476562,14.136656761169434,3362
142370,1.3206813335418701,6.080077648162842,14.152522087097168,3336
142440,0.5857030153274536,2.590452194213867,14.461613655090332,3330
142510,0.7849735021591187,-1.3752180337905884,14.66389274597168,3341
142580,0.39088961482048035,-6.024232864379883,14.824161529541016,3362
142650,-0.1483437418937683,-8.501116752624512,14.947419166564941,3753
142720,0.7006420493125916,-12.726985931396484,16.055408477783203,3753
142790,0.5848391652107239,-2.777614116668701,19.32292366027832,3758
142860,1.6509348154067993,-0.6588162183761597,24.435426712036133,3763
142930,1.3526051044464111,-0.2967378497123718,23.390905380249023,3763
143000,0.9092633128166199,-0.30001577734947205,22.654010772705078,3763
143070,0.8067114949226379,-0.22988134622573853,22.437816619873047,3768
143140,0.6447688937187195,-0.1138119027018547,22.180265426635742,3768
143210,0.4054194688796997,-0.3329918682575226,21.850082397460938,3768
143280,0.28461524844169617,-0.19948378205299377,21.68026351928711,3774
143350,0.1413167268037796,-0.14226134121418,21.470722198486328,3774
143420,0.09084869921207428,-0.015808911994099617,21.3210391998291,3779
143490,0.03985185548663139,0.025203559547662735,21.1652774810791,3779
143560,0.20649996399879456,0.3381282687187195,21.018613815307617,3779
143630,0.15330851078033447,0.27102094888687134,20.882627487182617,3779
143700,0.1063968688249588,0.27567869424819946,20.7352237701416,3784
143770,0.13324491679668427,0.25783348083496094,20.59075927734375,3779
143840,0.12843336164951324,0.2511367201805115,20.454191207885742,3784
143910,-0.1159631684422493,0.22476264834403992,20.342716217041016,3784
143980,0.010679992847144604,0.24595285952091217,20.186939239501953,3784
144050,0.0006762591656297445,0.37460577487945557,20.037065505981445,3784
144120,0.10552768409252167,0.34978756308555603,19.88997459411621,3790
