timeStamp,stateEstimate.roll,stateEstimate.pitch,stateEstimate.yaw,pm.vbatMV
85032,0.4329213500022888,0.23947596549987793,0.010150122456252575,4069
85102,0.44925907254219055,0.3067217171192169,0.009004124440252781,4064
85172,0.4668290615081787,0.3681566119194031,0.007294056471437216,4069
85242,0.44135937094688416,0.29574519395828247,0.007638800889253616,4069
85312,0.4758509695529938,0.3843223750591278,0.005432578735053539,4059
85382,0.5050392746925354,0.4621037244796753,0.003094916697591543,4064
85452,0.4641706645488739,0.3634844124317169,0.0057986085303127766,4064
85522,0.4027746915817261,0.2626286447048187,0.002794866682961583,4064
85592,0.3899986743927002,0.23599113523960114,0.002602571388706565,4069
85662,0.387317031621933,0.23295652866363525,0.0022344300523400307,4069
85732,0.4537736773490906,0.43862465023994446,-0.0008743546204641461,4059
85802,0.4831846356391907,0.5326492786407471,0.0017081983387470245,4069
85872,0.0017784697702154517,0.0013684384757652879,0.0007530396105721593,4069
85942,0.0023082357365638018,-0.002303442917764187,-0.0007280998397618532,4064
86012,0.00023084656277205795,0.0008412865572609007,-0.0012536633294075727,4069
86082,0.00016870851686690003,0.003711029188707471,-0.003663647221401334,4064
86152,-0.0007668078178539872,0.00435754656791687,-0.0056592561304569244,4069
86222,-0.0023501438554376364,0.00790129043161869,-0.008701249025762081,4064
86292,-0.003760450053960085,0.012093237601220608,-0.010687485337257385,4064
86362,-0.004363310988992453,0.01133882999420166,-0.012572991661727428,4069
86432,-0.0034907159861177206,0.0123154167085886,-0.014412818476557732,4069
86502,-0.0027577197179198265,0.01280153263360262,-0.015805723145604134,4069
86572,-0.00575598469004035,0.01473182812333107,-0.01813494972884655,4069
86642,-0.0037659991066902876,0.017479006201028824,-0.022738629952073097,4064
86712,-0.0028903281781822443,0.023702269420027733,-0.022551121190190315,4064
86782,-0.004133373033255339,0.023672951385378838,-0.022008799016475677,4059
86852,-0.00933923665434122,0.02227492816746235,-0.01897662691771984,4064
86922,-0.03216111287474632,0.04186614230275154,-0.0718764215707779,3077
86992,-0.11892891675233841,0.36852291226387024,0.14708708226680756,3256
87062,0.34198305010795593,3.3034331798553467,0.3887409567832947,3415
87132,-0.07945108413696289,3.3386261463165283,0.8024807572364807,3446
87202,0.906229555606842,-0.014176571741700172,1.4587820768356323,3425
87272,0.6965903639793396,-1.0660768747329712,1.9547291994094849,3431
87342,0.7206342816352844,-2.412261962890625,2.0885088443756104,3489
87412,0.4738754630088806,-2.9643571376800537,2.1221463680267334,3489
87482,0.2964349091053009,-2.247811794281006,2.112473249435425,3499
87552,-0.4223911762237549,-1.4721689224243164,1.9668984413146973,3478
87622,-0.8874942660331726,-0.5632501840591431,1.805919885635376,3457
87692,-1.1502926349639893,0.3708654046058655,1.6552340984344482,3431
87762,-1.1761646270751953,1.0872288942337036,1.5664242506027222,3415
87832,-1.057146430015564,1.391784429550171,1.5129474401474,3399
87902,-0.8631972074508667,1.5937637090682983,1.4811474084854126,3399
87972,-0.5696606636047363,1.4912976026535034,1.4513987302780151,3409
88042,-0.4000859558582306,1.354952335357666,1.458290457725525,3425
88112,-0.20060855150222778,1.1812487840652466,1.461531162261963,3409
88182,-0.08336349576711655,0.930851936340332,1.5235273838043213,3404
88252,0.015656795352697372,0.7481128573417664,1.5874288082122803,3415
88322,0.17487703263759613,0.5236966609954834,1.5992339849472046,3420
88392,0.14645561575889587,0.3413909077644348,1.6383373737335205,3415
88462,0.09070183336734772,0.33907413482666016,1.6561079025268555,3425
88532,0.19900499284267426,0.06018919125199318,1.6554961204528809,3431
88602,0.1480211317539215,0.06908079981803894,1.6462713479995728,3425
88672,0.10272470116615295,0.011488922871649265,1.6233185529708862,3415
88742,0.08412788063287735,-0.06460952013731003,1.5649693012237549,3425
88812,0.03816293179988861,0.07153687626123428,1.487545132637024,3420
88882,-0.023108232766389847,0.04748711362481117,1.3837637901306152,3394
88952,0.026096949353814125,0.12372605502605438,1.3120325803756714,3388
89022,-0.08485449850559235,0.11853136122226715,1.2093087434768677,3373
89092,0.024812951683998108,0.04322174936532974,1.1383496522903442,3362
89162,-0.2103646993637085,0.16247999668121338,1.092464566230774,3373
89232,-0.18768632411956787,-0.004039635881781578,1.0673226118087769,3357
89302,-0.2334684133529663,0.006371807307004929,1.0355194807052612,3357
89372,-0.12163058668375015,-0.18286745250225067,0.9833850860595703,3383
89442,-0.1581130474805832,-0.1106351986527443,0.9689894914627075,3378
89512,-0.0682632327079773,-0.15875867009162903,0.9296082258224487,3351
89582,0.11930972337722778,-0.056284669786691666,0.9209757447242737,3330
89652,-0.022173622623085976,-0.028667999431490898,0.8912898898124695,3336
89722,0.05898042023181915,-0.13638614118099213,0.8789376616477966,3351
89792,-0.03978646174073219,-2.0428524017333984,0.8918645977973938,3362
89862,0.04854026809334755,-4.096284866333008,0.9247389435768127,3404
89932,0.4588085412979126,-5.8851189613342285,0.9526593685150146,3357
90002,2.2109150886535645,-6.96984338760376,0.9534637331962585,3325
90072,2.8054373264312744,-7.312939643859863,0.9140337705612183,3346
90142,3.1989586353302,-6.653733253479004,0.8124569058418274,3357
90212,3.0289652347564697,-5.411800384521484,0.7502231597900391,3420
90282,2.8475756645202637,-3.972090721130371,0.7123000025749207,3441
90352,2.336073875427246,-2.366128444671631,0.7229408621788025,3431
90422,1.7133225202560425,-1.3306865692138672,0.755547821521759,3394
90492,1.1263304948806763,-0.3541870713233948,0.7902436256408691,3309
90562,0.5634959936141968,0.29076772928237915,0.75782710313797,3314
90632,0.3170482814311981,0.4912119209766388,0.6974082589149475,3341
90702,0.18008141219615936,0.4612509310245514,0.5996033549308777,3351
90772,0.07967741787433624,0.3412291407585144,0.5535535216331482,3336
90842,0.0900697261095047,0.1241571307182312,0.547784149646759,3341
90912,0.20540830492973328,-0.07592879235744476,0.5845286846160889,3346
90982,0.0743405893445015,-0.3159533739089966,0.6176332235336304,3399
91053,-0.24273119866847992,-0.42826271057128906,0.6514425873756409,3404
91122,-0.33571097254753113,-0.6081451177597046,0.6814247965812683,3388
91193,-0.6634407639503479,-0.5998373031616211,0.7046716213226318,3336
91263,-0.8151735067367554,-0.7728161215782166,0.7240958213806152,3299
91332,-2.725738525390625,-0.7551863789558411,0.7191440463066101,3330
91403,-2.8839123249053955,-0.7416634559631348,0.6686689853668213,3351
91473,-2.9980924129486084,-0.737285315990448,0.5429660677909851,3383
91543,-2.5738532543182373,-0.6498354077339172,0.4598100185394287,3404
91613,-2.105142831802368,-0.580973207950592,0.3180801570415497,3409
91683,-1.3527506589889526,-0.5636361837387085,0.16992151737213135,3383
91753,-0.8417940735816956,-0.5651060938835144,0.06280351430177689,3309
91822,-0.3916023373603821,-0.3689262866973877,-0.029454007744789124,3325
91892,0.033843450248241425,-0.3863784372806549,-0.08219418674707413,3336
91962,0.32610878348350525,-0.4891004264354706,-0.05862629786133766,3309
92033,0.4330321252346039,-0.5344688892364502,0.04347459599375725,3309
92102,0.44691628217697144,-0.5405950546264648,0.3192973732948303,3309
92172,0.11253488063812256,-0.45673033595085144,0.6355306506156921,3320
92242,-0.21268902719020844,-0.5109072327613831,0.9035184979438782,3299
92312,-0.37415364384651184,-0.5020579099655151,0.9644567966461182,3309
92382,1.3480677604675293,-0.37684231996536255,0.8593497276306152,3314
92452,2.1232316493988037,-0.6055389642715454,0.663503885269165,3309
92522,2.8223989009857178,-0.5580409169197083,0.47252053022384644,3314
92592,2.7636666297912598,-0.5983633995056152,0.37824028730392456,3325
92662,2.3871803283691406,-0.4370853900909424,0.29090461134910583,3325
92732,2.0811197757720947,-0.33028480410575867,0.3405446410179138,3367
92802,1.3663299083709717,0.011470915749669075,0.6615136861801147,3373
92872,0.5363243222236633,-0.13548295199871063,1.026898980140686,3388
92942,-1.4323288202285767,-0.519849419593811,1.2182751893997192,3409
93012,-2.8887135982513428,-0.5660891532897949,1.2673734426498413,3415
93082,-3.4413721561431885,-0.6184191703796387,1.2515374422073364,3420
93152,-3.305565357208252,-0.17898394167423248,1.1770390272140503,3415
93222,-3.007887601852417,-0.34128645062446594,1.237959384918213,3388
93292,-2.753737211227417,-0.3622038662433624,1.366890788078308,3351
93362,-1.6832590103149414,-0.38025963306427,1.1012684106826782,3325
93432,-0.7410018444061279,-0.17782877385616302,0.7308503985404968,3330
93502,-0.10405419021844864,-0.2952376902103424,0.44366705417633057,3304
93572,0.4359130263328552,-0.2606193721294403,0.2753799259662628,3309
93642,0.5582771301269531,-0.31413543224334717,0.3028380870819092,3336
93712,0.6509203910827637,-0.20385697484016418,0.2618660628795624,3299
93782,0.6897766590118408,-0.2316170334815979,0.17693392932415009,3304
93852,0.43542832136154175,-0.10947772115468979,0.0008474885835312307,3309
93922,0.5354323983192444,0.019673438742756844,-0.4475996494293213,3351
93992,0.48497530817985535,-0.011382139287889004,-0.9344598054885864,3330
94062,0.5453606843948364,0.12566381692886353,-1.2350857257843018,3325
94132,-0.16832123696804047,0.3067491352558136,-1.3043123483657837,3293
94202,-0.12030436843633652,0.32644104957580566,-1.335233449935913,3299
94272,-0.41758856177330017,0.3222196400165558,-1.2672656774520874,3346
94342,-0.37039509415626526,0.406015008687973,-1.2418500185012817,3325
94412,0.009276512078940868,0.3131408989429474,-1.403714656829834,3304
94482,-0.043835509568452835,0.007395793683826923,-1.4275959730148315,3320
94552,-0.0684298425912857,-0.11129208654165268,-1.4411884546279907,3367
94622,-0.6500420570373535,-0.15213465690612793,-1.3871175050735474,3357
94692,-0.4908609688282013,-0.10251077264547348,-1.3741791248321533,3304
94762,-0.7012109160423279,-0.0767241045832634,-1.21897292137146,3299
94832,0.08657298237085342,0.20630134642124176,-1.043246865272522,3320
94902,0.10576722770929337,-0.09681063890457153,-0.5450906753540039,3293
94972,0.059703607112169266,-0.05170462653040886,0.0201053936034441,3288
95042,-0.39745157957077026,0.18210922181606293,0.6016919016838074,3283
95112,-0.7905981540679932,-0.04787154495716095,0.9282236099243164,3304
95182,-0.9787905216217041,-0.1299571990966797,0.9073031544685364,3341
95252,-1.1378802061080933,0.11518596112728119,0.5855739712715149,3330
95322,-0.524090588092804,-0.1266641765832901,0.10317344218492508,3362
95392,-0.05593249946832657,-0.10841017961502075,-0.12312326580286026,3346
95462,-0.005397955421358347,-0.031139671802520752,-0.1471717655658722,3320
95532,0.04782944917678833,-0.10536127537488937,-0.1362510323524475,3346
95602,-0.06829994171857834,-0.2565339505672455,-0.12357296049594879,3314
95672,-0.06332545727491379,-0.21096684038639069,-0.1130460798740387,3304
95742,-0.1330384910106659,-0.3588513433933258,-0.061762820929288864,3299
95812,-0.18087661266326904,-0.2189970761537552,-0.04541565105319023,3309
95882,-0.15659046173095703,-0.4207251965999603,-0.07753201574087143,3314
95952,-0.03100576624274254,-0.25104206800460815,-0.08794702589511871,3320
96022,-0.03777209296822548,-0.1935088336467743,0.01870962418615818,3299
96092,-0.19493156671524048,-0.03804207593202591,0.21693983674049377,3288
96162,-0.417431503534317,-0.10165876895189285,0.37484148144721985,3293
96232,-0.31039959192276,-0.07746727019548416,0.37798699736595154,3299
96302,0.11699336022138596,0.025046274065971375,0.2855369448661804,3288
96372,0.23913638293743134,-0.08347692340612411,0.26421669125556946,3309
96442,0.1416473686695099,0.09255273640155792,0.22927622497081757,3309
96512,0.3146006464958191,0.00356673588976264,0.09599523991346359,3341
96582,0.28684309124946594,-0.14373937249183655,0.09482598304748535,3373
96652,0.010979733429849148,-0.09215536713600159,0.04380246251821518,3388
96722,0.07626283913850784,-0.1501552015542984,-0.05376746132969856,3425
96792,-0.04344556853175163,-0.13635510206222534,-0.1467389017343521,3431
96862,0.0752718448638916,-0.15959152579307556,-0.23044514656066895,3441
96932,0.07701390981674194,-0.040680572390556335,-0.2635437548160553,3436
97002,0.22073502838611603,-0.13095277547836304,-0.25155723094940186,3431
97072,0.3106721043586731,-0.10967845469713211,-0.1947557032108307,3425
97142,0.1522851586341858,-0.17609615623950958,-0.12395892292261124,3425
97212,0.27957919239997864,-0.26004570722579956,-0.10447126626968384,3431
97282,-0.13666529953479767,-0.1942649483680725,-0.033169735223054886,3431
97352,0.046612273901700974,-0.3185286223888397,0.006179910618811846,3436
97422,0.023631595075130463,-0.48474836349487305,0.038560718297958374,3431
97492,-0.08050276339054108,-0.2740570604801178,0.02263674885034561,3431
97562,-0.3553948402404785,-0.3172236680984497,-0.14143849909305573,3431
97632,-0.10069892555475235,-0.18382300436496735,-0.39429232478141785,3431
97702,0.040112949907779694,0.10798172652721405,-0.6356710195541382,3441
97772,0.08633409440517426,0.18910007178783417,-0.7806047201156616,3441
97843,0.2458738088607788,0.5228292942047119,-0.8723912239074707,3431
97912,0.2819384038448334,0.6737849712371826,-1.011041283607483,3420
97982,0.3978477716445923,0.9641908407211304,-1.2034730911254883,3431
98052,2.0966479778289795,0.15613272786140442,-1.273849368095398,3431
98122,2.6130499839782715,-0.0829278901219368,-1.0181936025619507,3436
98192,2.7426657676696777,0.059887342154979706,-0.677004873752594,3436
98262,2.933281898498535,-0.15158770978450775,-0.619472324848175,3436
98332,2.3432018756866455,0.004226442892104387,-0.6484156250953674,3431
98402,2.1430511474609375,-0.021271316334605217,-0.7106004357337952,3425
98472,1.4357253313064575,-0.07744912803173065,-0.714070200920105,3431
98542,1.0188696384429932,-0.012049536220729351,-0.7225527167320251,3420
98612,0.610981285572052,0.003751111915335059,-0.7932897806167603,3415
98682,0.3531250059604645,-0.28322938084602356,-0.8213303089141846,3409
98752,-0.17100109159946442,-0.32159093022346497,-0.7206602692604065,3425
98822,-0.17875340580940247,-0.17485077679157257,-0.6354541778564453,3436
98892,-0.29953983426094055,-0.28776198625564575,-0.5337087512016296,3431
98962,-0.44404107332229614,-0.0428510382771492,-0.43877533078193665,3431
99032,-0.5965515971183777,0.20974285900592804,-0.3894006907939911,3415
99102,-0.287427693605423,0.37314924597740173,-0.4233839511871338,3404
99172,-1.6417192220687866,0.34625324606895447,-0.4596588909626007,3409
99242,-3.0474228858947754,0.4914312958717346,-0.4518837332725525,3404
99312,-3.1536896228790283,0.5698285698890686,-0.495137095451355,3409
99382,-2.939202308654785,0.27985909581184387,-0.498561292886734,3415
99452,-2.3905999660491943,0.054915763437747955,-0.4758456349372864,3415
99522,-1.8276065587997437,-0.012575176544487476,-0.44914713501930237,3409
99592,-0.9814347624778748,0.1180446445941925,-0.4302889406681061,3415
99662,-0.46926331520080566,-0.021509043872356415,-0.49516189098358154,3420
99732,-0.11022643744945526,-0.11512487381696701,-0.6078125834465027,3420
99802,0.3095835745334625,0.021571796387434006,-0.776525616645813,3420
99872,0.42944806814193726,0.03303327038884163,-0.8820247650146484,3415
99942,0.24002745747566223,0.05618662014603615,-0.918129563331604,3415
100012,0.4200538992881775,0.21326060593128204,-0.9593713879585266,3415
100082,0.24639062583446503,0.16018711030483246,-0.7000081539154053,3409
100153,-0.11426045745611191,0.1335994154214859,-0.3652569353580475,3409
100222,-0.3171568214893341,0.11246591806411743,-0.157130166888237,3409
100292,-0.3372541666030884,0.004523464944213629,-0.0977054014801979,3409
100362,-0.4772414565086365,0.04799249395728111,-0.11395370960235596,3394
100432,-0.3995072543621063,-0.06061970070004463,-0.06796833127737045,3388
100502,-0.45355862379074097,-0.113215371966362,0.0403747633099556,3388
100572,-0.6027196049690247,-0.3409857153892517,0.008725905790925026,3394
100642,-0.11989941447973251,-0.2920990586280823,-0.09534568339586258,3394
100712,-0.29328057169914246,-0.09846127033233643,-0.17834094166755676,3383
100782,0.1783728152513504,-0.1658153086900711,-0.25343403220176697,3383
100852,-0.06991682946681976,0.022335143759846687,-0.36646395921707153,3378
100922,0.303555428981781,-0.10777626186609268,-0.45377710461616516,3378
100992,0.2597430348396301,-0.17234939336776733,-0.4613206088542938,3383
101062,0.11957647651433945,-0.1628238558769226,-0.5318683981895447,3373
101132,0.10947346687316895,-0.13166923820972443,-0.6176486611366272,3367
101202,-0.01956251449882984,-0.14574792981147766,-0.6211671233177185,3357
101272,-0.03725891187787056,0.11138030141592026,-0.6150424480438232,3357
101342,-0.09876573085784912,0.08382725715637207,-0.6796683073043823,3341
101412,-0.2325727343559265,0.12868091464042664,-0.5325626134872437,3325
101482,-0.8348686695098877,0.4519695043563843,-0.2823103070259094,3299
101552,-0.5982451438903809,0.22086907923221588,-0.21760816872119904,3283
101622,-0.37182527780532837,0.2519495189189911,-0.4380708932876587,3283
101692,-0.10713918507099152,-0.4126330018043518,-0.6247166991233826,3293
101762,-0.15476371347904205,-0.5774074792861938,-0.7599866390228271,3299
101832,0.19471609592437744,-0.14922620356082916,-0.8632181882858276,3288
101902,0.13195563852787018,2.3488922119140625,-0.8861795663833618,3278
101972,0.171494722366333,5.40905237197876,-0.861815869808197,3304
102042,0.13084208965301514,7.664628505706787,-0.794187068939209,3325
102112,0.18619956076145172,7.4593892097473145,-0.7642467021942139,3309
102182,0.0930943489074707,6.703364849090576,-0.822584331035614,3288
102252,-0.011208010837435722,5.3729987144470215,-0.8315556645393372,3309
102322,-0.17742720246315002,3.9665327072143555,-0.6935439109802246,3293
102392,-0.07894734293222427,2.728072166442871,-0.5685508251190186,3267
102462,-0.1350080370903015,1.6456722021102905,-0.4308467209339142,3272
102532,-0.22516152262687683,0.9561394453048706,-0.298898309469223,3262
102602,-0.21207432448863983,0.31746500730514526,-0.1784641295671463,3272
102672,-0.3563116788864136,0.12927579879760742,-0.04936522990465164,3309
102742,-0.2711535096168518,-0.10838641226291656,0.05978620424866676,3309
102812,-0.23777717351913452,-0.005259356927126646,0.1402289718389511,3299
102882,-0.14739960432052612,0.10097744315862656,0.17123670876026154,3278
102952,-0.11951269954442978,0.22647307813167572,0.1787015199661255,3267
103022,-0.05757291615009308,0.4626520276069641,0.1681722104549408,3272
103092,-0.0059037720784544945,0.6717374324798584,0.12913253903388977,3272
103162,0.020595181733369827,0.6965827345848083,0.06954151391983032,3278
103232,0.034811753779649734,0.8025000691413879,0.025196265429258347,3314
103302,0.067832812666893,0.6958166360855103,0.014771837741136551,3320
103372,0.043652553111314774,0.8923070430755615,-0.04355976730585098,3288
103442,0.0016655566869303584,0.942543625831604,-0.06439714878797531,3246
103512,-0.05393631383776665,0.9774942398071289,-0.05585700273513794,3256
103582,0.06954978406429291,0.7991141676902771,-0.03791448846459389,3241
103652,0.012197220697999,0.8009204864501953,-0.013735280372202396,3299
103722,-0.1334618180990219,0.6679373979568481,0.10176681727170944,3314
103792,-0.1564648151397705,0.5935390591621399,0.191994771361351,3325
103862,-0.10193429887294769,0.6375805735588074,0.24457518756389618,3299
103932,-0.04734852537512779,0.5739467144012451,0.28561389446258545,3278
104002,-0.0715542659163475,0.7580580115318298,0.3219127357006073,3267
104072,0.06835566461086273,0.5697165131568909,0.4109640121459961,3262
104142,0.04796040803194046,0.7279999852180481,0.5849945545196533,3283
104212,0.0013151010498404503,0.7051931619644165,0.8111250996589661,3278
104282,0.02233300171792507,0.5399989485740662,1.0181775093078613,3278
104352,-0.08697634935379028,0.4905026853084564,1.1600677967071533,3283
104422,-0.10701169818639755,0.530963659286499,1.308895468711853,3278
104492,-0.09558765590190887,0.5160907506942749,1.4342765808105469,3288
104562,-0.023595178499817848,0.710115909576416,1.5402565002441406,3288
104632,0.0472136065363884,3.5670785903930664,1.5721884965896606,3267
104702,-0.09574799984693527,6.3829874992370605,1.5994750261306763,3267
104772,-0.021396318450570107,7.712418556213379,1.557103157043457,3272
104842,-0.05548397824168205,7.928530216217041,1.4133517742156982,3272
104912,-0.0448845699429512,6.983819007873535,1.2199013233184814,3278
104982,-0.08133415877819061,4.171527862548828,1.0184029340744019,3256
105052,-0.1284402310848236,0.9739736318588257,0.8250698447227478,3262
105122,-0.24364593625068665,-3.0090951919555664,0.693977952003479,3272
105192,-0.009631999768316746,-5.888777256011963,0.64151531457901,3251
105262,-0.19802536070346832,-6.481015205383301,0.497798889875412,3256
105332,-0.27712905406951904,-6.158123016357422,0.3336808681488037,3262
105402,-0.23099802434444427,-5.09689998626709,0.1582680195569992,3267
105472,-0.2492208629846573,-3.9169890880584717,-0.006459040567278862,3278
105542,-0.18984806537628174,-2.513988971710205,-0.1240711435675621,3272
105612,-0.26814237236976624,-1.3470429182052612,-0.2205469161272049,3262
105682,-0.1273348033428192,-0.3698784410953522,-0.24586787819862366,3288
105752,-0.20071148872375488,0.21172213554382324,-0.23148542642593384,3325
105822,-0.09439712762832642,0.6178681254386902,-0.21147798001766205,3314
105892,0.00321113015525043,0.8352378010749817,-0.18194419145584106,3278
105962,0.07682351768016815,0.7865791916847229,-0.14576663076877594,3262
106032,0.179231196641922,0.6705843806266785,-0.0884498655796051,3272
106102,0.0848715603351593,0.47820743918418884,0.013299768790602684,3267
106172,0.12044543027877808,0.3243894875049591,0.16350799798965454,3256
106242,0.014984920620918274,0.10447578132152557,0.32619622349739075,3267
106312,0.09261560440063477,-0.07027073204517365,0.42127928137779236,3256
106382,0.08899501711130142,-0.13069546222686768,0.46342676877975464,3262
106452,0.04370648041367531,-0.1555996984243393,0.4750235676765442,3251
106522,0.16274675726890564,-0.28566205501556396,0.4583650529384613,3262
106592,-0.015265149995684624,-0.37203067541122437,0.3595418930053711,3278
106662,0.08200248330831528,-0.35468095541000366,0.22076384723186493,3293
106732,-0.04467090964317322,-0.30306926369667053,0.08317242562770844,3288
106802,-0.0026476304046809673,-0.20134799182415009,-0.05215288698673248,3309
106872,-0.17420074343681335,-0.1960487812757492,-0.1768387109041214,3341
106942,-0.07237188518047333,-0.0859549418091774,-0.28957125544548035,3357
107012,-0.28636983036994934,0.1202428862452507,-0.3771536648273468,3388
107082,-0.01899033412337303,-0.16460303962230682,-0.4288618862628937,3394
107152,-0.019485780969262123,0.053443532437086105,-0.4320114850997925,3388
107222,0.037337612360715866,-0.023989638313651085,-0.43530794978141785,3399
107292,-0.04963745176792145,0.06756669282913208,-0.4344584047794342,3399
107362,-0.023223405703902245,0.07330255210399628,-0.4182870090007782,3404
107432,-0.07672175765037537,0.043505266308784485,-0.422140896320343,3409
107502,-0.07365387678146362,0.16922876238822937,-0.40201136469841003,3404
107572,-0.16280411183834076,0.06498504430055618,-0.38119345903396606,3404
107642,-0.11351654678583145,0.09003805369138718,-0.3664013743400574,3404
107712,-0.16515246033668518,0.020988548174500465,-0.34174829721450806,3399
107782,-0.08867591619491577,0.03791637718677521,-0.3252202868461609,3404
107852,-0.023758623749017715,0.08535352349281311,-0.31728044152259827,3404
107922,0.06339195370674133,-0.08595321327447891,-0.33568453788757324,3394
107992,0.10710018873214722,-0.07380836457014084,-0.3428536057472229,3383
108062,0.08542003482580185,-0.006257383152842522,-0.3235461413860321,3394
108132,0.015862463042140007,0.004346658941358328,-0.31477177143096924,3394
108202,-0.07991760224103928,0.06361425668001175,-0.2925088107585907,3394
108272,-0.03579233959317207,0.10393934696912766,-0.28395673632621765,3388
108342,0.06527668982744217,-0.009584490209817886,-0.27308037877082825,3388
108412,0.008180467411875725,0.02604588493704796,-0.2687741219997406,3388
108482,0.07420618087053299,0.11577771604061127,-0.2697314918041229,3388
108552,0.03505260497331619,0.09773150086402893,-0.22681279480457306,3388
108622,0.08027190715074539,0.20298199355602264,-0.1955871731042862,3383
108692,0.009209159761667252,-0.059327807277441025,-0.24148067831993103,3383
108762,0.06750522553920746,0.07722631096839905,-0.396108478307724,3383
108832,0.17311504483222961,-0.1806029975414276,-0.2871309220790863,3383
108902,0.025444407016038895,0.05548659339547157,0.3770048916339874,3378
108972,0.010470935143530369,0.2805728614330292,1.6812853813171387,3378
109043,0.09061996638774872,0.20479904115200043,3.610523223876953,3373
109113,0.1592206507921219,0.2358030378818512,6.5556159019470215,3357
109182,0.006437548901885748,0.14785243570804596,9.093725204467773,3362
109253,0.1668626368045807,0.003798697143793106,12.375953674316406,3362
109322,0.31506824493408203,-0.10067432373762131,15.854479789733887,3362
109392,0.28662917017936707,-0.20265358686447144,19.407987594604492,3367
109462,0.2877388894557953,-0.03727446496486664,23.035877227783203,3373
109533,0.14171311259269714,-0.3483281433582306,26.71811866760254,3373
109602,-0.08705752342939377,-0.4082837402820587,30.417686462402344,3373
109672,-0.022079024463891983,-0.37567830085754395,34.17440414428711,3378
109742,-0.17017267644405365,-0.48952528834342957,37.83513259887695,3378
109812,-0.09283747524023056,-0.322993665933609,41.379032135009766,3378
109882,-0.2602684497833252,-0.29140424728393555,44.67395782470703,3383
109952,0.00375198433175683,-0.17421145737171173,47.55925369262695,3378
110022,-0.1385427564382553,0.06121182441711426,49.85354232788086,3367
110092,0.2676941752433777,-0.010935534723103046,51.440547943115234,3373
110162,0.39156362414360046,0.14105261862277985,52.493194580078125,3367
110232,0.43400371074676514,0.14003674685955048,53.15589904785156,3357
110302,0.4692053198814392,0.36236292123794556,53.79563903808594,3357
110372,0.3383948802947998,0.40551677346229553,54.760982513427734,3362
110442,0.06535045057535172,0.6024084687232971,56.18482208251953,3362
110512,-0.06478875130414963,0.6495528817176819,58.12560272216797,3357
110582,-0.18605466187000275,0.6526955962181091,60.51767349243164,3346
110652,-0.3473597764968872,0.5236808061599731,62.59895324707031,3341
110722,-0.3428109288215637,0.4626273214817047,64.24628448486328,3320
110792,-0.4944345951080322,0.4379846155643463,65.9856948852539,3320
110862,0.12820051610469818,0.02332145720720291,67.89862823486328,3314
110932,-0.10372869670391083,0.17274121940135956,70.24517822265625,3293
111002,-0.10591151565313339,0.2577859163284302,72.97112274169922,3262
111072,-0.09745379537343979,0.07338250428438187,75.78947448730469,3241
111142,-0.053746193647384644,0.13004356622695923,78.56229400634766,3241
111212,0.20874440670013428,-0.0026739975437521935,80.95848846435547,3256
111282,-0.036340441554784775,0.3313661217689514,82.82317352294922,3278
111352,-0.05960991233587265,0.28568410873413086,84.3075942993164,3267
111422,0.03616170212626457,0.19198943674564362,85.39576721191406,3267
111492,-0.31790536642074585,0.2995823621749878,86.18045806884766,3278
111562,-0.16176766157150269,0.20948675274848938,86.71475219726562,3256
111632,-0.21443656086921692,-0.027598310261964798,87.09941101074219,3267
111702,0.2435275763273239,-0.04952799901366234,87.41691589355469,3262
111772,0.17042991518974304,-0.10521875321865082,87.61174774169922,3262
111842,0.3806236684322357,-0.11177664995193481,87.72315979003906,3251
111912,0.3828345835208893,0.25562039017677307,87.81007385253906,3256
111982,0.3414155840873718,0.3421480357646942,87.79388427734375,3267
112052,0.2570390999317169,0.49019938707351685,87.69534301757812,3272
112122,0.3014700412750244,0.4191690981388092,87.5141830444336,3267
112192,0.3818226754665375,0.518040657043457,87.34492492675781,3262
112262,0.5299865007400513,0.34772515296936035,87.1264877319336,3241
112332,0.4595385789871216,0.42356494069099426,86.87047576904297,3246
112402,0.4104296565055847,0.18124888837337494,86.51433563232422,3246
112472,0.36416858434677124,0.3507740795612335,86.01368713378906,3251
112542,0.3833244740962982,0.0614420622587204,85.40291595458984,3256
112612,0.35059282183647156,0.10110160708427429,84.76849365234375,3267
112682,0.3380444645881653,0.1896260380744934,84.20585632324219,3251
112752,0.22108978033065796,0.2758168578147888,83.82524871826172,3251
112822,0.13795003294944763,0.20336303114891052,83.6690673828125,3246
112892,-0.1378776878118515,0.5042849779129028,83.6482162475586,3246
112962,-0.36406153440475464,0.26497942209243774,83.77208709716797,3256
113032,-0.29846805334091187,0.3911716938018799,84.04429626464844,3246
113102,-0.3957104980945587,0.1384173035621643,84.36283874511719,3241
113172,-0.21917466819286346,0.07476996630430222,84.54710388183594,3235
113242,-0.2922278046607971,0.1137920394539833,84.71766662597656,3251
113312,-0.1847526878118515,0.03996793553233147,84.87743377685547,3246
113382,-0.2571108639240265,0.10354689508676529,84.9185562133789,3256
113452,-0.24381057918071747,0.053630996495485306,84.77761840820312,3256
113522,-0.04300341382622719,0.05824125185608864,84.55029296875,3256
113592,-0.15726499259471893,-0.041894301772117615,84.27957916259766,3251
113662,-0.1693904846906662,-0.010328355245292187,84.00906372070312,3246
113732,-0.19263432919979095,-0.19192403554916382,83.82901000976562,3235
113802,-0.33957576751708984,0.06990082561969757,83.70150756835938,3235
113872,-0.3479140102863312,-0.06445964425802231,83.6843490600586,3246
113942,-0.5041113495826721,0.1769542098045349,83.67584991455078,3241
114012,-0.36878567934036255,-0.08374380320310593,83.66015625,3241
114082,-0.48435717821121216,0.17032165825366974,83.71509552001953,3235
114152,-0.2246471792459488,-0.03463046997785568,83.76866912841797,3219
114222,-0.1070118099451065,-0.00365688418969512,83.88615417480469,3230
114292,-0.16168297827243805,-0.18605846166610718,84.45106506347656,3256
114362,-0.32103341817855835,-0.14513415098190308,85.61993408203125,3262
114432,-0.24226103723049164,0.008406381122767925,87.45053100585938,3256
114502,-0.21876239776611328,-0.08279751986265182,89.85050964355469,3256
114572,-0.10685444623231888,0.06052675098180771,92.70303344726562,3251
114642,0.259064257144928,0.11011824011802673,95.8840103149414,3241
114712,0.497035413980484,0.1930447816848755,99.2022705078125,3241
114782,0.4495585858821869,0.2798546552658081,102.73294067382812,3241
114852,0.20075727999210358,0.3087612986564636,106.46355438232422,3230
114922,0.3521444797515869,0.07565475255250931,110.36636352539062,3230
114992,0.2903584837913513,0.1293502300977707,114.39112091064453,3246
115062,0.1668401062488556,-0.18178758025169373,118.45787811279297,3246
115132,0.2897500991821289,-0.24482227861881256,122.51998138427734,3235
115202,0.013410523533821106,0.030300501734018326,126.3236312866211,3225
115272,0.5463452935218811,0.03662882745265961,129.90780639648438,3246
115342,0.3418046534061432,0.15280789136886597,133.3746337890625,3241
115412,0.2579749822616577,0.37834763526916504,136.77120971679688,3246
115482,-0.033126767724752426,0.4733351767063141,140.28074645996094,3246
115552,-0.3048880696296692,0.5820868015289307,143.9156951904297,3246
115622,-0.4892861247062683,0.547698974609375,147.70123291015625,3235
115692,-0.5522977709770203,0.3567649722099304,151.5845184326172,3230
115762,-0.603837251663208,0.2668188512325287,155.35475158691406,3225
115832,-0.5440733432769775,0.24035583436489105,158.850341796875,3225
115902,-1.07764732837677,1.2288607358932495,162.03773498535156,3230
115972,-1.0611090660095215,0.9600274562835693,164.63157653808594,3251
116042,-0.7781688570976257,0.9242504835128784,166.2318572998047,3278
116112,-0.48755332827568054,0.5443382263183594,167.17694091796875,3251
116182,-0.16250042617321014,0.4813022315502167,167.623046875,3241
116252,0.3206242620944977,0.24689894914627075,167.7492218017578,3241
116322,0.39947402477264404,0.08738633245229721,167.70297241210938,3246
116392,0.7375880479812622,-0.28428980708122253,167.62269592285156,3246
116462,0.7403510212898254,-0.221109539270401,167.5279083251953,3241
116532,0.6598770618438721,-0.1598636656999588,167.41831970214844,3241
116602,0.6103678345680237,-0.08956316858530045,167.2974853515625,3256
116672,0.37525293231010437,-0.0860096663236618,167.21466064453125,3267
116742,0.5101027488708496,-0.12084157764911652,167.2423858642578,3251
116812,0.4798599183559418,-0.18974749743938446,167.2543487548828,3246
116882,0.45138460397720337,-0.06616780906915665,167.28627014160156,3235
116952,0.420322448015213,-0.21846996247768402,167.3407440185547,3256
117022,0.3065514862537384,-0.19947460293769836,167.2935028076172,3272
117092,0.2319929450750351,-0.06348560750484467,167.04818725585938,3278
117162,0.2554512619972229,-0.2608669698238373,166.72987365722656,3288
117232,0.2399999499320984,0.018229743465781212,166.4800262451172,3251
117302,0.2896062433719635,-0.051393792033195496,166.34226989746094,3219
117372,0.2930589020252228,-0.014047198928892612,166.29727172851562,3225
117442,0.2922120988368988,-0.17517416179180145,166.38365173339844,3241
117512,0.2986965477466583,-0.227002814412117,166.50450134277344,3235
117582,0.11503676325082779,0.02998294122517109,166.5593719482422,3251
117652,0.07172005623579025,0.033200476318597794,166.68006896972656,3241
117722,0.05507821589708328,0.0018255205359309912,166.78958129882812,3230
117792,-0.03217635303735733,-0.023988334462046623,166.823486328125,3241
117862,-0.22091452777385712,0.2591078579425812,166.71185302734375,3225
117932,-0.5214072465896606,0.4002590775489807,166.65496826171875,3241
118002,-0.3812035322189331,0.3364703953266144,166.8699493408203,3241
118072,-0.31159508228302,0.23568663001060486,167.6197967529297,3230
118142,-0.23971663415431976,0.3189489245414734,168.94509887695312,3241
118212,-0.270255982875824,0.10210052132606506,170.9308624267578,3225
118282,-0.309802770614624,0.12648828327655792,173.3711700439453,3235
118352,-0.43486398458480835,0.11663863062858582,176.11447143554688,3225
118422,-0.28379544615745544,-0.05965825915336609,178.6480255126953,3230
118492,0.024640295654535294,0.10616549849510193,-179.1774139404297,3251
118562,0.11597325652837753,0.07718522101640701,-177.25900268554688,3246
118632,0.20545636117458344,0.17916645109653473,-175.4188232421875,3246
118702,-0.24916011095046997,0.03517201170325279,-173.69796752929688,3241
118772,-0.38453513383865356,-0.3420912027359009,-172.03411865234375,3241
118842,-0.495321661233902,-3.5819380283355713,-170.39720153808594,3241
118912,-0.24694734811782837,-5.461470603942871,-168.83853149414062,3251
118982,-0.22628581523895264,-6.975640296936035,-167.2348175048828,3241
119052,-0.05269886925816536,-7.426070690155029,-165.52769470214844,3241
119122,-0.13454952836036682,-6.948500156402588,-163.70391845703125,3230
119192,-0.14607028663158417,-5.798619270324707,-161.85377502441406,3235
119262,-0.5227236747741699,-4.3630194664001465,-159.9528045654297,3230
119332,-0.7711637616157532,-3.198439836502075,-158.06727600097656,3246
119402,-1.1070245504379272,-2.017624616622925,-156.27232360839844,3251
119472,-1.402125358581543,-1.1595895290374756,-154.57870483398438,3256
119542,-1.5107035636901855,-0.4232480823993683,-152.90505981445312,3278
119612,-1.5130401849746704,0.001517481287010014,-151.2609100341797,3251
119682,-1.5062215328216553,0.3078618347644806,-149.5811004638672,3246
119752,-1.422271490097046,0.3814346492290497,-147.8740234375,3256
119822,-1.2784496545791626,0.3396533131599426,-146.16702270507812,3246
119892,-1.1185956001281738,0.3160330355167389,-144.45404052734375,3251
119962,-0.9102029204368591,0.1164088174700737,-142.76551818847656,3241
120032,-0.7585321664810181,-0.017083993181586266,-141.1106414794922,3262
120102,-0.7232961654663086,-0.15167555212974548,-139.4318084716797,3241
120172,-0.7956041097640991,-0.12747789919376373,-137.73196411132812,3246
120242,-0.8874948620796204,-0.2693294286727905,-136.04092407226562,3235
120312,-0.8784524202346802,-0.2969822585582733,-134.3978271484375,3241
120382,-0.8870553970336914,-0.42340099811553955,-132.75637817382812,3246
120452,-0.8890334367752075,-0.4930170476436615,-131.04379272460938,3246
120522,-2.7510669231414795,-0.405603289604187,-129.30299377441406,3241
120592,-4.393805503845215,-0.2901213467121124,-127.56536102294922,3246
120662,-5.416767597198486,-0.36238008737564087,-125.86698150634766,3241
120732,-5.669536590576172,0.12963615357875824,-124.15985870361328,3246
120802,-5.286312580108643,0.4235817790031433,-122.4903793334961,3241
120872,-4.38874626159668,0.8104078769683838,-120.83060455322266,3225
120942,-1.8550043106079102,0.8087044954299927,-119.2319564819336,3241
121012,1.4931713342666626,0.6310891509056091,-117.7289047241211,3235
121082,2.539266347885132,0.7309097051620483,-116.23761749267578,3230
121152,3.2375247478485107,0.6901943683624268,-114.70171356201172,3241
121222,2.955582618713379,1.7854069471359253,-113.17310333251953,3241
121292,2.202369451522827,6.269676685333252,-111.70027160644531,3225
121362,0.9448211789131165,11.859689712524414,-110.13459777832031,3246
121432,-0.23196099698543549,12.575037002563477,-108.37327575683594,3193
121502,-1.0285732746124268,12.4401216506958,-106.62385559082031,3156
121572,-1.4720898866653442,10.46086311340332,-104.90108489990234,3167
121642,-1.348527193069458,7.772225379943848,-103.2886734008789,3209
121712,-0.979007363319397,4.449130535125732,-101.55709838867188,3288
121782,-0.4987293481826782,1.933288812637329,-99.8460693359375,3362
121852,-0.13766519725322723,0.2241346389055252,-98.10094451904297,3404
121922,0.3609994053840637,-0.6365205645561218,-96.38737487792969,3409
121992,0.6620153784751892,-0.9213883280754089,-94.64555358886719,3388
122062,0.8804376721382141,-0.6201126575469971,-92.8082504272461,3362
122132,1.0802384614944458,-0.19493921101093292,-90.93863677978516,3346
122202,1.0658340454101562,0.27754589915275574,-89.06624603271484,3346
122272,0.9849673509597778,0.6542561054229736,-87.4608154296875,3357
122342,0.9403544664382935,2.0036940574645996,-85.30632019042969,3357
122412,0.614871084690094,1.9974777698516846,-83.71260070800781,3362
122482,0.6347135901451111,0.6224629878997803,-81.86116027832031,3362
122552,0.6057186126708984,-2.5040996074676514,-80.03189086914062,3362
122622,0.8105574250221252,-3.6398704051971436,-78.24468994140625,3367
122692,0.5723781585693359,-3.8395402431488037,-76.54098510742188,3373
122762,0.6048857569694519,-3.614499092102051,-74.86310577392578,3367
122832,0.4212999939918518,-2.6895835399627686,-73.15970611572266,3367
122902,0.25230157375335693,-1.918166995048523,-71.4727554321289,3373
122972,-0.09362924098968506,-0.977888286113739,-69.86540985107422,3367
123042,-0.2937566936016083,-0.19396302103996277,-68.26483154296875,3362
123112,-0.40295445919036865,0.3883824646472931,-66.67285919189453,3373
123182,-0.29349032044410706,2.793548345565796,-65.02202606201172,3362
123252,-0.6079438924789429,5.898315906524658,-63.407100677490234,3367
123322,-0.5729333758354187,7.612476825714111,-61.80146026611328,3362
123392,-0.5712068676948547,8.343340873718262,-59.92430114746094,3367
123462,-0.4496978223323822,8.088884353637695,-58.4242057800293,3367
123533,-0.2452063411474228,7.107064723968506,-56.590301513671875,3357
123603,0.16333797574043274,5.438564777374268,-54.82039260864258,3346
123673,0.6036962270736694,3.7029504776000977,-52.967987060546875,3351
123743,0.8859265446662903,2.3698339462280273,-51.307640075683594,3351
123813,1.3232234716415405,1.0298105478286743,-49.63345718383789,3351
123883,1.595157265663147,0.4481428265571594,-48.01611328125,3357
123953,1.8482334613800049,-0.7117573618888855,-46.40592575073242,3351
124022,1.7809460163116455,-2.347501039505005,-44.72044372558594,3367
124092,1.906419038772583,-4.220029354095459,-43.04793167114258,3367
124163,1.7527830600738525,-6.4814677238464355,-41.34657669067383,3367
124232,1.9472970962524414,-7.829957008361816,-39.66740036010742,3367
124302,1.5706647634506226,-7.071270942687988,-38.05894088745117,3362
124372,1.3722175359725952,-6.115297317504883,-36.46614074707031,3357
124442,0.9238743782043457,-4.480756759643555,-35.01594161987305,3367
124512,0.731414794921875,-3.350792407989502,-33.80146026611328,3362
124582,0.3112351894378662,-1.708369255065918,-32.46809387207031,3362
124652,0.04024505987763405,-0.5119602680206299,-30.85096549987793,3357
124722,-0.15903416275978088,0.378073513507843,-28.813987731933594,3357
124792,-0.3263115882873535,0.8571649789810181,-26.335758209228516,3357
124862,-0.409583181142807,1.0463323593139648,-23.4925537109375,3357
124932,-0.4039855897426605,0.9075955152511597,-20.363636016845703,3362
125002,-0.3997901380062103,0.9394428133964539,-17.012523651123047,3362
125072,-0.5383020639419556,0.8781425356864929,-13.575151443481445,3362
125142,-0.031880106776952744,0.3733258843421936,-10.053549766540527,3357
125212,0.3750317692756653,-0.009630881249904633,-6.479722023010254,3351
125282,0.5591936707496643,0.024405736476182938,-2.869788885116577,3351
125352,0.6755374073982239,-0.1705491542816162,0.7413414120674133,3362
125422,0.48791858553886414,-0.2163010984659195,4.433169841766357,3357
125492,0.33239442110061646,0.5482833981513977,8.051403045654297,3357
125562,0.2615204155445099,0.39423736929893494,11.676350593566895,3357
125632,-0.015774600207805634,0.6618731617927551,15.362127304077148,3357
125702,-0.13509391248226166,0.6471074223518372,19.006771087646484,3351
125772,-0.17965878546237946,0.47574713826179504,22.597667694091797,3351
125842,-0.20116135478019714,0.5074189305305481,26.15530014038086,3351
125912,-0.05715560540556908,0.37283188104629517,29.761878967285156,3351
125982,0.12477738410234451,0.3249897062778473,33.32445526123047,3351
126052,0.35905152559280396,0.15106432139873505,36.86952209472656,3357
126122,0.46670830249786377,0.2046014368534088,40.39647674560547,3351
126192,0.5308303833007812,0.16452403366565704,43.93675231933594,3357
126262,0.6385765671730042,0.2646544873714447,47.45956802368164,3351
126332,0.5718165636062622,0.2700240910053253,51.007080078125,3346
126402,0.5629075169563293,0.4087793827056885,54.52369689941406,3351
126472,0.4030200242996216,0.4043866991996765,58.078338623046875,3351
126542,0.5563948154449463,0.567716121673584,61.60090637207031,3357
126612,0.42166218161582947,0.5287908315658569,65.14076232910156,3351
126682,0.52837735414505,0.4832734763622284,68.65446472167969,3351
126752,0.5178760886192322,0.372124582529068,72.20054626464844,3346
126822,0.4054124653339386,0.42928874492645264,75.7378921508789,3336
126892,0.4966300129890442,0.37351420521736145,79.23553466796875,3341
126962,0.15929853916168213,0.40767985582351685,82.72935485839844,3346
127032,0.3044876456260681,0.1555732786655426,86.224853515625,3346
127102,0.3146158754825592,0.19155558943748474,89.73919677734375,3346
127172,0.03782474994659424,0.3625877797603607,93.30626678466797,3346
127242,0.6068694591522217,0.042945630848407745,96.7786865234375,3346
127312,0.241038516163826,-0.07911444455385208,100.26458740234375,3341
127382,0.06628110259771347,-0.1306707262992859,103.7598648071289,3336
127452,-0.27206823229789734,-0.5821077227592468,107.2663803100586,3341
127522,-0.4643460214138031,-0.48101806640625,110.7899398803711,3341
127592,-0.5614148378372192,-0.23724156618118286,114.2802963256836,3341
127662,-0.6083568334579468,-0.006537770386785269,117.75525665283203,3346
127732,-0.5395200252532959,0.20494741201400757,121.26131439208984,3346
127802,-0.6795543432235718,0.47418415546417236,124.76631927490234,3341
127872,-0.6808466911315918,0.5656981468200684,128.26699829101562,3346
127942,-0.6077592968940735,0.647452175617218,131.79147338867188,3346
128012,-0.5845441818237305,0.6821318864822388,135.3666229248047,3341
128082,-0.6681511402130127,0.842344343662262,138.93743896484375,3336
128152,-0.5546045899391174,0.6846689581871033,142.46826171875,3336
128222,-0.39899376034736633,0.5781222581863403,146.02352905273438,3336
128292,-0.3501569926738739,0.5870601534843445,149.58018493652344,3336
128362,-0.16249169409275055,0.45963937044143677,153.06588745117188,3341
128432,-0.19715599715709686,0.6704827547073364,156.22872924804688,3346
128502,-0.3091717064380646,0.6141268014907837,158.98199462890625,3346
128572,0.23291221261024475,0.21061034500598907,161.02804565429688,3341
128642,0.4733048677444458,-0.04481631517410278,162.3711395263672,3320
128712,0.619115948677063,-0.0507686547935009,163.25521850585938,3325
128782,0.3369900584220886,-0.18066368997097015,163.8024139404297,3336
128852,0.2235986739397049,-0.03940565884113312,164.1069793701172,3341
128922,0.06158667802810669,-0.12347686290740967,164.26483154296875,3336
128992,-0.05303752422332764,0.09145514667034149,164.29925537109375,3320
129062,-0.24477331340312958,0.17437349259853363,164.2729034423828,3320
129132,-0.2743951678276062,0.39616891741752625,164.2382354736328,3320
129202,-0.3583586513996124,0.33683252334594727,164.16326904296875,3320
129272,-0.302485853433609,0.3709202706813812,164.1867218017578,3314
129342,-0.2828455865383148,0.5149113535881042,164.804931640625,3314
129412,-0.22819390892982483,0.4841076731681824,166.18270874023438,3309
129482,-0.3541013300418854,0.476129949092865,168.05560302734375,3314
129552,-0.3222280442714691,0.42654821276664734,169.69544982910156,3314
129622,-0.32907623052597046,0.4250258207321167,170.84388732910156,3325
129692,-0.24358630180358887,0.4887467920780182,171.69126892089844,3309
129762,-0.10351741313934326,0.38718873262405396,172.2758026123047,3309
129832,-0.1865512728691101,0.38697904348373413,172.63490295410156,3299
129902,-0.1295880675315857,0.31161099672317505,172.84910583496094,3283
129972,-0.09580758213996887,0.4349502623081207,172.95376586914062,3288
130042,-0.17243503034114838,-1.4237762689590454,172.97654724121094,3267
130112,0.09840606153011322,-5.482273101806641,172.99322509765625,3251
130182,0.03419278934597969,-7.348519802093506,172.93978881835938,3246
130252,0.132401704788208,-7.725722789764404,172.92771911621094,3204
130322,-0.031743373721838,-7.227588653564453,172.8607635498047,3198
130392,-0.024501752108335495,-5.853610038757324,172.75009155273438,3198
130462,-0.0694645345211029,-4.365011215209961,172.6246795654297,3209
130532,-0.12522132694721222,-2.722674608230591,172.48399353027344,3209
130602,-0.07773805409669876,-1.4896012544631958,172.26976013183594,3219
130672,0.025042014196515083,-0.45801469683647156,172.0933380126953,3219
130742,0.08399966359138489,0.14376115798950195,171.93136596679688,3225
130812,0.14307565987110138,0.606925368309021,171.7842254638672,3225
130882,0.23260615766048431,0.708329975605011,171.6409454345703,3230
130952,0.3823622465133667,0.723888635635376,171.4693145751953,3209
131022,0.4381241798400879,0.5805832147598267,171.30691528320312,3214
131092,0.44608232378959656,0.425638884305954,171.1663055419922,3204
131162,0.5161560773849487,0.01875530742108822,171.0673065185547,3209
131232,0.45958349108695984,-0.22604221105575562,170.98902893066406,3209
131302,0.4714292287826538,-0.35503023862838745,170.9350128173828,3219
131372,0.42152634263038635,-0.5449896454811096,170.8759307861328,3225
131442,0.3637838661670685,-0.4950849115848541,170.8319854736328,3225
131512,0.25833383202552795,-0.5632627010345459,170.80984497070312,3225
131582,0.08465854078531265,-0.5567635893821716,170.81092834472656,3219
131652,0.010133477859199047,-0.574568510055542,170.8967742919922,3209
131722,-0.2100125104188919,-0.5184251666069031,171.05252075195312,3193
131792,-0.23331281542778015,-0.5924397706985474,171.1926727294922,3209
131862,-0.0893573984503746,-0.5248763561248779,171.1997833251953,3235
131932,0.09466846287250519,-0.5584365725517273,171.21102905273438,3230
132002,0.015375673770904541,-0.37989455461502075,171.30128479003906,3219
132072,-0.16159716248512268,-0.18522359430789948,171.4148406982422,3209
132142,-0.1440989375114441,-0.17791502177715302,171.39767456054688,3219
132212,-0.07327409088611603,-0.2994069457054138,171.2754364013672,3214
132282,0.11449466645717621,-0.21230509877204895,171.0184783935547,3204
132352,0.2757120132446289,-0.29661881923675537,170.77935791015625,3219
132422,0.4045741558074951,-0.37534669041633606,170.61024475097656,3241
132492,0.35002535581588745,-0.4965965151786804,170.57664489746094,3235
132562,0.22393624484539032,-0.3734404444694519,170.65023803710938,3241
132632,0.04482747241854668,-0.4461318254470825,170.7378387451172,3235
132702,-0.008991817012429237,-0.2993747889995575,170.79603576660156,3241
132772,-0.07915804535150528,-0.26112136244773865,170.85305786132812,3230
132842,-0.23132136464118958,-0.1827516406774521,170.89683532714844,3214
132912,-0.36420851945877075,-0.15457729995250702,170.98590087890625,3225
132982,-0.49748533964157104,-0.12039733678102493,171.1134033203125,3219
133052,-0.46442264318466187,-0.031785354018211365,171.05625915527344,3214
133122,-0.16361330449581146,1.713785171508789,170.747314453125,3209
133192,-0.0077565256506204605,5.81544303894043,170.36666870117188,3214
133262,0.14687229692935944,7.520888328552246,169.9582977294922,3219
133332,0.3933942914009094,7.554957389831543,169.5568389892578,3219
133402,0.43080848455429077,6.942042827606201,169.18507385253906,3209
133472,0.523082435131073,5.784118175506592,168.8885955810547,3219
133542,0.6146389245986938,4.244835376739502,168.62767028808594,3225
133612,0.41642069816589355,2.937464714050293,168.49134826660156,3230
133682,0.37983939051628113,1.682607889175415,168.38595581054688,3230
133752,0.32844963669776917,0.7297435998916626,168.28720092773438,3214
133822,0.223687082529068,0.2947515547275543,168.18125915527344,3219
133892,0.2474740445613861,0.08896497637033463,168.02728271484375,3235
133962,0.24676695466041565,-0.2699146866798401,167.93896484375,3230
134032,0.1522834151983261,0.10470940917730331,167.91159057617188,3235
134102,0.1520857959985733,0.17532920837402344,167.9293670654297,3246
134172,0.022221434861421585,0.4312184154987335,168.00790405273438,3246
134242,0.03453947603702545,0.4026987552642822,168.11138916015625,3241
134312,0.016004156321287155,0.5447539687156677,168.2486114501953,3214
134382,-0.027519263327121735,0.5358835458755493,168.4232177734375,3219
134452,-0.07381005585193634,0.5547488927841187,168.57337951660156,3225
134522,-0.10309191793203354,0.4507618844509125,168.73825073242188,3230
134592,-0.17332373559474945,0.3332168161869049,168.83953857421875,3235
134662,-0.15618635714054108,0.20872962474822998,168.9386444091797,3235
134732,-0.15662243962287903,0.33246198296546936,169.06349182128906,3225
134802,-0.3035244941711426,0.2921600639820099,169.13278198242188,3230
134872,-0.2927626669406891,0.24249166250228882,169.2012939453125,3230
134942,-0.35476046800613403,0.37907519936561584,169.2710418701172,3241
135012,-0.3878242075443268,0.3474413752555847,169.32786560058594,3241
135082,-0.28952324390411377,0.38871514797210693,169.41207885742188,3241
135152,-0.3844294548034668,0.34010523557662964,169.47816467285156,3246
135222,-0.3747093975543976,0.3369958996772766,169.50608825683594,3235
135292,-0.3698979318141937,0.3629547357559204,169.49610900878906,3225
135362,-0.24099507927894592,0.29597511887550354,169.44976806640625,3209
135432,-0.27482038736343384,0.5071677565574646,169.40711975097656,3219
135502,-0.14954771101474762,0.43067264556884766,169.41693115234375,3230
135572,-0.2200598567724228,0.4677976667881012,169.39112854003906,3246
135642,-0.27572140097618103,0.6007546186447144,169.34983825683594,3230
135712,-0.2601861357688904,0.4560922086238861,169.32965087890625,3225
135782,-0.27485042810440063,0.34510424733161926,169.25503540039062,3230
135852,-0.24343107640743256,0.37093836069107056,169.1779022216797,3235
135922,-0.1982458531856537,0.3098190128803253,169.08053588867188,3241
135992,-0.1030186340212822,0.1834372878074646,168.95433044433594,3241
136062,0.09142843633890152,-0.015911700204014778,168.86903381347656,3256
136132,-0.07805707305669785,0.09428264200687408,168.78424072265625,3230
136202,-0.1467418670654297,0.020147154107689857,168.70318603515625,3219
136272,-0.23969680070877075,0.08523515611886978,168.62088012695312,3219
136342,-0.3343610465526581,0.06088535115122795,168.50743103027344,3209
136412,-0.3032013177871704,0.04730575904250145,168.4243621826172,3209
136482,-0.33225706219673157,0.08512546867132187,168.4267120361328,3219
136552,-0.1658981591463089,0.12924060225486755,168.47630310058594,3225
136622,-0.10852085798978806,0.014396842569112778,168.59722900390625,3219
136692,-0.07120471447706223,-0.009996958076953888,168.7408905029297,3219
136762,-0.049020059406757355,-0.7216063737869263,168.9484405517578,3246
136832,0.20142526924610138,-3.4209718704223633,169.11509704589844,3230
136902,0.1761709451675415,-5.218099594116211,169.2355194091797,3225
136972,0.3730021119117737,-6.937103271484375,169.2705078125,3214
137042,1.7423858642578125,-7.303708553314209,169.26214599609375,3214
137112,1.8468241691589355,-6.994854927062988,169.07472229003906,3209
137182,0.49726158380508423,-5.462308883666992,168.9654083251953,3219
137252,0.302769273519516,-4.197967529296875,168.7707061767578,3219
137322,-0.1623462289571762,-2.6806740760803223,168.62245178222656,3235
137392,-0.1280328631401062,-1.3466349840164185,168.42926025390625,3214
137462,-0.25334620475769043,-0.611831545829773,168.2733612060547,3219
137532,-0.32562491297721863,0.02111240103840828,168.22154235839844,3219
137602,-0.3431501090526581,0.43361032009124756,168.32211303710938,3235
137672,-0.4093134105205536,0.5252076387405396,168.40431213378906,3225
137742,-0.39934977889060974,0.43627938628196716,168.489990234375,3235
137812,-0.3058401346206665,0.32370448112487793,168.44602966308594,3262
137882,-0.2335381954908371,0.1492750495672226,168.41317749023438,3230
137952,-0.12958072125911713,-0.3276572823524475,168.47320556640625,3225
138022,-0.0728001669049263,-0.34559157490730286,168.64190673828125,3214
138092,-0.21022187173366547,-0.5391970276832581,168.882080078125,3204
138162,-0.2660074830055237,-0.7468910813331604,169.07232666015625,3204
138232,-0.293304443359375,-0.8412379026412964,169.31646728515625,3214
138302,-0.4621845781803131,-0.9334494471549988,169.54197692871094,3219
138372,-0.5345624089241028,-0.9631146788597107,169.642822265625,3225
138442,-0.5539992451667786,-0.8709937334060669,169.7194061279297,3225
138512,-0.5828453898429871,-0.7021690607070923,169.8251495361328,3214
138582,-0.5481652617454529,-0.46903273463249207,169.9539031982422,3219
138652,-0.5489486455917358,-0.3461678624153137,170.02890014648438,3219
138722,-0.49588489532470703,-0.2987658679485321,170.03335571289062,3230
138792,-0.40884360671043396,-0.23155049979686737,169.92398071289062,3219
138862,-0.2606373131275177,-0.3153263330459595,169.80401611328125,3235
138932,-0.1175123006105423,-0.2953837513923645,169.67239379882812,3219
139002,-0.02316010557115078,-0.2959926128387451,169.52796936035156,3225
139072,0.03636417165398598,-0.4068869650363922,169.31854248046875,3235
139142,0.15727688372135162,-0.2859336733818054,169.0966033935547,3230
139212,0.20126092433929443,-0.38765668869018555,168.92185974121094,3225
139282,0.28976747393608093,-0.3669833242893219,168.7517852783203,3230
139352,0.36879315972328186,-0.25961098074913025,168.63499450683594,3219
139422,0.261790931224823,-0.032946787774562836,168.5833282470703,3230
139492,0.14861753582954407,0.13803207874298096,168.52842712402344,3225
139562,0.22574563324451447,0.007175537757575512,168.42483520507812,3230
139632,0.2729434072971344,-0.0841253250837326,168.29017639160156,3235
139702,0.12684056162834167,0.006160296965390444,168.1563720703125,3219
139772,0.26253798604011536,-0.06599534302949905,168.07943725585938,3219
139842,0.16895073652267456,0.08387143909931183,168.13426208496094,3230
139912,-0.14587117731571198,-0.085779570043087,168.2500762939453,3225
139982,-0.10258971154689789,-0.053414251655340195,168.39015197753906,3230
140053,-0.3689839243888855,-0.2877040207386017,168.51214599609375,3225
140122,-0.5075985193252563,-0.03676026314496994,168.59646606445312,3230
140192,-0.4977060854434967,-0.14060872793197632,168.6302032470703,3225
140262,-0.46462684869766235,-0.032707180827856064,168.64454650878906,3230
140332,-0.33713093400001526,-0.08168593049049377,168.75930786132812,3219
140402,-0.5625783801078796,0.1608283370733261,169.10430908203125,3235
140472,-0.675765872001648,-0.057729821652173996,169.59576416015625,3230
140542,-0.5923340320587158,-0.004450156353414059,169.88357543945312,3209
140612,-0.5034512281417847,0.01739487424492836,169.9864044189453,3204
140682,-0.08432813733816147,-0.0686662420630455,170.04537963867188,3198
140752,-0.15332038700580597,0.050127796828746796,169.98941040039062,3225
140822,0.6142295002937317,-0.09087307006120682,169.7583770751953,3230
140892,0.669646143913269,-0.2512412369251251,169.53248596191406,3230
140962,0.7441338300704956,-0.13692574203014374,169.4878387451172,3225
141032,0.6119011044502258,-0.3660135865211487,169.45875549316406,3267
141102,0.7103713750839233,-0.018504446372389793,169.92901611328125,3267
141172,0.4016028046607971,-0.1867569535970688,171.33815002441406,3230
141242,0.1145578995347023,-0.1800060272216797,173.14735412597656,3209
141312,-0.12186437845230103,-0.12647239863872528,174.76998901367188,3209
141382,-0.808755099773407,-0.1253080517053604,176.1020965576172,3204
141452,-1.3666903972625732,0.3104523718357086,177.09878540039062,3209
141522,-1.7246239185333252,0.2241603434085846,177.75112915039062,3219
141592,-1.5847996473312378,0.3377212584018707,178.0910186767578,3198
141662,-1.3276066780090332,0.12249185889959335,178.3078155517578,3209
141733,-1.3459954261779785,0.025607427582144737,178.54367065429688,3209
141803,-0.6984262466430664,-0.2804631292819977,178.6100311279297,3219
141872,-0.5245879292488098,-0.4436476230621338,178.60719299316406,3225
141943,-0.5127604603767395,-0.1879442036151886,178.46075439453125,3225
142013,-0.27239227294921875,-0.5104400515556335,178.12998962402344,3219
142083,0.47475576400756836,-0.4857253134250641,177.60922241210938,3230
142153,1.058284044265747,-0.27117839455604553,177.2909393310547,3225
142223,1.2410130500793457,-0.3415871858596802,177.14276123046875,3219
142293,1.4895431995391846,0.13318414986133575,177.132568359375,3225
142362,1.1311092376708984,-0.13577742874622345,177.29627990722656,3214
142432,0.46647125482559204,-0.23336488008499146,177.234130859375,3214
142502,0.2657746970653534,-0.3408876955509186,176.938232421875,3204
142572,0.12127332389354706,-0.2856811583042145,176.59185791015625,3209
142642,-0.07213648408651352,-0.048444464802742004,176.2634735107422,3204
142713,-0.2026980221271515,-0.13982371985912323,176.08811950683594,3209
142782,-0.34507399797439575,-0.2570340037345886,175.96849060058594,3225
142852,-0.14536873996257782,0.058995120227336884,175.87942504882812,3219
142922,-0.2885272204875946,0.24634471535682678,175.91476440429688,3219
142992,-0.16203813254833221,0.3673878312110901,176.00404357910156,3209
143062,-0.3332488536834717,0.3745836019515991,176.1095428466797,3204
143132,-0.4152534008026123,0.17816899716854095,176.2028045654297,3225
143202,-0.6259671449661255,0.13506487011909485,176.32931518554688,3225
143272,-0.6053487658500671,0.18276280164718628,176.36669921875,3230
143342,-0.5683513879776001,-0.09373370558023453,176.4322052001953,3230
143412,-0.4873102903366089,-0.11716699600219727,176.4972686767578,3235
143482,-0.5443800687789917,0.054002709686756134,176.5531463623047,3219
143552,-0.4122963547706604,-7.061854557832703e-05,176.5266571044922,3219
143622,-0.29263126850128174,0.046711716800928116,176.47882080078125,3214
143692,-0.17730040848255157,0.07361114025115967,176.33616638183594,3209
143762,-0.13324066996574402,0.09179113060235977,176.19151306152344,3198
143832,0.1666336953639984,0.22843587398529053,176.09742736816406,3214
143902,0.10549004375934601,0.17969048023223877,176.1275177001953,3225
143972,0.13793300092220306,0.07607188820838928,176.2358856201172,3235
144042,-0.08405812829732895,0.14591196179389954,176.35543823242188,3241
144112,0.03417040780186653,0.005497375037521124,176.40945434570312,3230
144182,0.003961026202887297,0.2297852635383606,176.3638916015625,3241
