timeStamp,stateEstimate.roll,stateEstimate.pitch,stateEstimate.yaw,pm.vbatMV
56662,0.022970765829086304,0.034239042550325394,0.0045052398927509785,4011
56732,0.021336393430829048,0.03437250107526779,0.0044605787843465805,4011
56802,0.02022421918809414,0.03466029837727547,0.0032612180802971125,4011
56872,0.022219562903046608,0.033475786447525024,0.004932969808578491,4006
56942,0.021780584007501602,0.034365154802799225,0.008680993691086769,4006
57012,0.020676329731941223,0.03428032994270325,0.006153387483209372,4011
57082,0.01947251334786415,0.03004964254796505,0.008448502980172634,4011
57152,0.01877852901816368,0.02790074609220028,0.008622594177722931,4006
57222,0.018481580540537834,0.024888284504413605,0.012024768628180027,4006
57292,0.018344903364777565,0.029344145208597183,0.01145984511822462,4006
57362,0.020740928128361702,0.02338288351893425,0.013027355074882507,4006
57432,0.021932527422904968,0.020870892331004143,0.012542975135147572,4011
57502,-0.0005751210264861584,0.0010068992851302028,-0.000663965824060142,4006
57572,-0.00218138936907053,-0.006537663750350475,-0.0003545393410604447,4011
57642,-0.0027949493378400803,-0.009186270646750927,0.00120497343596071,4006
57712,-0.0015473261009901762,-0.01685297302901745,0.0014618452405557036,4011
57782,-0.0017565939342603087,-0.016366925090551376,0.0004114906769245863,4011
57852,-0.004115581046789885,-0.014522306621074677,0.002641973551362753,4006
57922,-0.00313434936106205,-0.015751931816339493,0.004391719587147236,4011
57992,-0.0026844572275877,-0.012046157382428646,0.002798586618155241,4006
58062,-0.0029750552494078875,-0.015696363523602486,0.0049938904121518135,4006
58132,-0.001555797178298235,-0.020744875073432922,0.004820532165467739,4011
58202,-0.0031023139599710703,-0.01869018003344536,0.0036144021432846785,4006
58272,-0.00477756978943944,-0.020025713369250298,0.0018123191548511386,4006
58342,-0.0027752744499593973,-0.013033689931035042,-0.00031853385735303164,4001
58412,-0.0036824431736022234,-0.014802634716033936,0.0019693588837981224,4011
58482,0.00021707887935917825,-0.02118326537311077,0.0015559385064989328,4006
58552,-0.005806574132293463,-0.030437542125582695,0.011817657388746738,3209
58622,0.03709876164793968,0.1371820718050003,0.09182871878147125,3336
58692,0.14260566234588623,0.9083988666534424,0.5986703038215637,3510
58762,0.007664643228054047,2.5450046062469482,1.3189831972122192,3573
58832,-0.09566492587327957,0.11906559765338898,1.9381437301635742,3589
58902,0.5764222741127014,-0.6328861713409424,2.5644474029541016,3589
58972,-0.24238154292106628,-0.8630546927452087,3.1919491291046143,3605
59042,0.5672341585159302,-1.9591847658157349,3.719268798828125,3621
59112,-0.4717838168144226,-1.656517505645752,3.7816927433013916,3621
59182,-0.3764062225818634,-2.19996976852417,3.5892937183380127,3626
59252,-1.4849379062652588,-1.0390733480453491,3.2980737686157227,3610
59322,-1.3248341083526611,-0.16295918822288513,3.0762946605682373,3594
59392,-1.4316436052322388,0.7117664217948914,2.8873515129089355,3589
59462,-1.1184406280517578,1.4773855209350586,2.726412057876587,3578
59532,-0.8610666990280151,1.9054421186447144,2.588536024093628,3573
59602,-0.4795156419277191,2.079267740249634,2.454068899154663,3568
59673,-0.10063415765762329,1.9982248544692993,2.3108928203582764,3568
59742,0.10762650519609451,1.7472590208053589,2.2147669792175293,3573
59812,0.30069205164909363,1.4710804224014282,2.14955997467041,3568
59883,0.20335888862609863,0.9824501872062683,2.1448328495025635,3573
59952,0.34305909276008606,0.7670998573303223,2.1793596744537354,3578
60023,0.30987676978111267,0.4280903935432434,2.237027168273926,3568
60092,0.23831598460674286,0.5853723287582397,2.2498719692230225,3563
60162,0.04196757450699806,0.08189387619495392,2.2544872760772705,3568
60232,-0.20966660976409912,-0.22414623200893402,2.2214369773864746,3568
60302,-0.0437629334628582,-0.27353209257125854,2.1816790103912354,3563
60372,-0.02941969782114029,-0.32431069016456604,2.1498517990112305,3568
60442,-0.01094742864370346,-0.20453862845897675,2.160684108734131,3568
60512,-0.09272973239421844,-0.13551566004753113,2.16900372505188,3563
60582,0.19533678889274597,-0.03965724632143974,2.189754009246826,3563
60652,0.1551620364189148,-0.056164223700761795,2.2297658920288086,3557
60722,0.1494474709033966,0.04058091342449188,2.2700679302215576,3557
60792,0.25538966059684753,-0.09076324850320816,2.286412000656128,3563
60862,0.13786210119724274,0.06458481401205063,2.2610554695129395,3563
60932,0.1579665243625641,0.07924003899097443,2.266017198562622,3557
61002,0.0025122216902673244,-0.9787213206291199,2.294015645980835,3552
61072,0.048584550619125366,-4.95847225189209,2.3161277770996094,3547
61142,0.01045543048530817,-7.050204753875732,2.3271355628967285,3547
61212,-0.04439718276262283,-7.8577880859375,2.3424408435821533,3547
61282,-0.08823880553245544,-7.4350481033325195,2.284849166870117,3541
61352,-0.09813043475151062,-6.201303005218506,2.1845755577087402,3541
61422,-0.06375553458929062,-4.732810020446777,2.0003819465637207,3541
61492,0.05695456266403198,-3.138444185256958,1.6997054815292358,3547
61562,0.15738092362880707,-1.8154559135437012,1.3520632982254028,3547
61632,0.2630063593387604,-0.6925970315933228,1.0282607078552246,3536
61702,0.39443469047546387,0.042007867246866226,0.7225243449211121,3547
61772,0.5249738097190857,0.5724154114723206,0.5009700655937195,3541
61842,0.4459199607372284,0.8049757480621338,0.34276044368743896,3541
61912,0.3945024311542511,0.9473625421524048,0.2629977762699127,3541
61982,0.3331153392791748,0.7748396396636963,0.2794922888278961,3541
62052,0.22894197702407837,0.5751486420631409,0.35074666142463684,3536
62122,0.14140930771827698,0.21323353052139282,0.47398072481155396,3536
62192,-0.021048571914434433,-0.018696138635277748,0.5530997514724731,3531
62262,-0.09231235086917877,-0.22837771475315094,0.6375327110290527,3536
62332,-0.15754392743110657,-0.5807115435600281,0.718339741230011,3536
62402,-0.21034829318523407,-0.6480985879898071,0.7473494410514832,3536
62472,-0.18145866692066193,-0.7148381471633911,0.6862406730651855,3536
62542,-0.21170976758003235,-0.7083664536476135,0.5553986430168152,3536
62612,-0.12732960283756256,-0.6753227710723877,0.4219028949737549,3531
62682,-0.07958139479160309,-0.5866535305976868,0.23292243480682373,3531
62752,0.040861792862415314,-0.6064909100532532,0.04782351106405258,3520
62822,0.17409725487232208,-0.6377642750740051,-0.15320953726768494,3520
62892,0.31257742643356323,-0.4566861093044281,-0.3800766170024872,3520
62962,0.39900511503219604,-0.275871604681015,-0.5413620471954346,3520
63032,0.383387953042984,-0.2391131967306137,-0.568990170955658,3531
63102,0.3051315248012543,-0.05204896256327629,-0.5468384623527527,3526
63172,0.30122455954551697,-0.0914863869547844,-0.47097310423851013,3515
63242,0.22479747235774994,-0.08338238298892975,-0.41372013092041016,3515
63312,0.07550337165594101,0.18633420765399933,-0.29201528429985046,3520
63382,0.05181075632572174,2.2104318141937256,-0.18785743415355682,3515
63452,-0.016012663021683693,5.955570697784424,-0.11460547149181366,3526
63522,-0.20573829114437103,7.533292770385742,-0.07399365305900574,3526
63592,-0.022168301045894623,7.441584587097168,-0.07275322079658508,3520
63662,-0.19291721284389496,6.653892993927002,-0.07123260200023651,3515
63732,-0.1832294911146164,5.0992560386657715,-0.0940910279750824,3504
63802,-3.4406485557556152,3.5578534603118896,-0.1262747347354889,3489
63872,-6.315359115600586,2.0448763370513916,-0.2512277066707611,3499
63942,-7.158392429351807,0.8754169344902039,-0.2816092073917389,3504
64012,-3.748203992843628,-0.06624393165111542,-0.2151615470647812,3504
64082,0.6307994723320007,-0.7805203795433044,-0.0394921638071537,3504
64152,2.7867798805236816,-0.8253211379051208,0.09470166265964508,3499
64222,4.402603626251221,-1.1047353744506836,0.23865850269794464,3504
64292,4.588054180145264,-0.7960788607597351,0.2720984220504761,3499
64362,4.292530059814453,-0.44491466879844666,0.3036295771598816,3504
64432,3.481430768966675,-0.12006083130836487,0.3108309209346771,3504
64502,2.536799430847168,0.2544190287590027,0.2905671298503876,3504
64572,1.5426722764968872,0.5379127264022827,0.2818470299243927,3504
64642,0.7868039608001709,0.722213089466095,0.24358360469341278,3504
64712,-0.06544219702482224,0.8216615915298462,0.18072770535945892,3504
64782,-0.4854418933391571,-1.6975953578948975,0.11778769642114639,3510
64852,-0.6962919235229492,-3.773487091064453,0.06161343306303024,3510
64923,-0.8704948425292969,-5.395328998565674,0.04599834978580475,3499
64992,-0.7432332634925842,-6.5041375160217285,0.05416344106197357,3494
65062,-0.6780092120170593,-5.9795355796813965,0.07689707726240158,3494
65132,-0.41953837871551514,-4.03511381149292,0.10085007548332214,3494
65202,-0.26068177819252014,-1.041938304901123,0.11653781682252884,3494
65272,-0.10619018226861954,1.9582585096359253,0.12982836365699768,3499
65342,0.003789352485910058,5.969608783721924,0.103648841381073,3499
65412,0.07802913337945938,7.148054599761963,0.12592703104019165,3494
65482,0.18896231055259705,7.492489814758301,0.165094792842865,3494
65552,0.1920604258775711,6.438244819641113,0.21644845604896545,3489
65622,0.16215895116329193,5.162911891937256,0.28167006373405457,3494
65692,0.216180682182312,3.419501304626465,0.3900510370731354,3489
65762,0.12715284526348114,2.0227103233337402,0.4923924207687378,3478
65832,0.23681102693080902,0.5432997941970825,0.6510939598083496,3483
65902,0.19849999248981476,-0.32133349776268005,0.797004222869873,3483
65972,0.19036516547203064,-0.9691466689109802,0.9151937365531921,3489
66042,0.2293166220188141,-1.243780493736267,0.9862874746322632,3494
66112,0.2680933475494385,-1.186651587486267,1.0175529718399048,3499
66182,0.4214596152305603,-1.0208208560943604,1.026303768157959,3489
66252,0.3472849130630493,-0.8038364052772522,0.9941979050636292,3483
66322,0.23806646466255188,-0.4599309265613556,0.9476801753044128,3489
66392,0.1005733460187912,-0.21413961052894592,0.9135457277297974,3489
66462,0.09334911406040192,0.1644715666770935,0.8492724895477295,3489
66532,0.09695853292942047,0.2379510998725891,0.7822120189666748,3483
66602,0.0028307014144957066,0.34268254041671753,0.7343744039535522,3483
66672,-0.05634022504091263,0.4482410252094269,0.7096489071846008,3483
66742,0.013877633027732372,0.4927932024002075,0.6722272038459778,3483
66812,0.15441028773784637,0.39513275027275085,0.6448288559913635,3483
66882,0.06957938522100449,0.43860864639282227,0.6297052502632141,3478
66952,0.03978884965181351,0.42031705379486084,0.5926977396011353,3483
67022,-0.0439167283475399,0.41620200872421265,0.5452682971954346,3478
67092,0.07768554985523224,0.3222607970237732,0.4951339364051819,3478
67162,0.13267825543880463,0.18381166458129883,0.43444111943244934,3478
67232,-0.004708316642791033,0.19459640979766846,0.4076082706451416,3478
67302,-0.042700815945863724,0.10392788797616959,0.38250118494033813,3478
67372,-0.06815966963768005,0.08906491100788116,0.4075593650341034,3473
67442,0.016179896891117096,-0.06833714246749878,0.46271178126335144,3473
67512,-0.04633571580052376,-0.1355310082435608,0.4940378963947296,3478
67582,-0.16080906987190247,-0.08176262676715851,0.4952104091644287,3468
67652,-0.20770993828773499,-0.08759809285402298,0.4826925992965698,3473
67722,-0.26055580377578735,0.04552072659134865,0.48500630259513855,3473
67792,-0.18977713584899902,0.09185729175806046,0.5027605891227722,3473
67862,-0.11837920546531677,0.007245246320962906,0.49415838718414307,3478
67932,-0.03572792559862137,0.04651572182774544,0.4557854235172272,3473
68002,-0.16210061311721802,0.1699109524488449,0.4019462764263153,3473
68072,-0.20939841866493225,0.1624147593975067,0.3739095628261566,3473
68142,-0.3164340555667877,0.2698913514614105,0.41134896874427795,3468
68212,-0.29916009306907654,0.22656980156898499,0.4313926100730896,3468
68282,-0.3122433125972748,0.15363383293151855,0.43632784485816956,3468
68352,-0.36506667733192444,0.21104151010513306,0.4126216471195221,3468
68422,-0.1939871460199356,0.0704871192574501,0.36939677596092224,3468
68492,-0.08502382785081863,0.046725112944841385,0.3375714421272278,3468
68562,-0.038921795785427094,-0.10278481245040894,0.30506962537765503,3462
68632,0.07666662335395813,0.027533799409866333,0.260716050863266,3468
68702,-0.030108999460935593,-0.12957961857318878,0.19272804260253906,3468
68772,0.09005775302648544,-0.16319046914577484,0.11634823679924011,3468
68842,0.046539098024368286,-0.23622125387191772,0.048620667308568954,3462
68912,0.10991138219833374,-0.2881453037261963,-0.04578814655542374,3462
68982,-0.001736485748551786,-0.34044763445854187,-0.14802005887031555,3468
69052,0.08769712597131729,-0.1121901348233223,-0.22469548881053925,3462
69122,0.05999297648668289,0.025493605062365532,-0.24289870262145996,3457
69192,-0.004583351314067841,0.19979169964790344,-0.2572210431098938,3462
69262,0.02077214978635311,0.14728140830993652,-0.2814737558364868,3462
69332,-0.0685993880033493,0.13033556938171387,-0.2825794816017151,3457
69402,-0.2673650085926056,0.09811536967754364,-0.28769102692604065,3462
69472,-1.9620622396469116,0.035444144159555435,-0.34419935941696167,3457
69542,-5.685244560241699,0.35584908723831177,-0.3774849772453308,3457
69612,-7.700584411621094,0.16352276504039764,-0.44960421323776245,3457
69682,-5.984664440155029,0.056889794766902924,-0.48681503534317017,3457
69752,-1.778123140335083,-0.07243041694164276,-0.5098226070404053,3462
69822,1.5201754570007324,-0.2352716624736786,-0.57920902967453,3457
69892,3.1834495067596436,0.05616316944360733,-0.6914834380149841,3462
69962,4.242417335510254,-0.140874445438385,-0.7492756247520447,3452
70032,4.111271858215332,-0.078537218272686,-0.835470974445343,3452
70102,3.6122913360595703,-0.12452717870473862,-0.8865128755569458,3452
70172,2.78092098236084,-0.1138959750533104,-0.9487439393997192,3457
70242,1.8041237592697144,-0.09512569010257721,-1.0016679763793945,3452
70312,0.9214926958084106,-0.1254204511642456,-1.0686205625534058,3457
70382,0.11130601912736893,-0.15456171333789825,-1.0978959798812866,3457
70452,-0.4673231840133667,-0.0070534078404307365,-1.1240352392196655,3452
70522,-0.795661449432373,-0.057211074978113174,-1.1597695350646973,3457
70592,-0.9792861938476562,-0.10573480278253555,-1.1525077819824219,3457
70662,-2.3809239864349365,0.07205197215080261,-1.1132556200027466,3452
70732,-5.9820876121521,0.010423018597066402,-1.125054121017456,3452
70802,-7.831925392150879,0.04508347809314728,-1.1186096668243408,3446
70872,-6.6542558670043945,0.14668020606040955,-1.146864414215088,3446
70942,-2.445678949356079,-0.0383635014295578,-1.1840847730636597,3441
71012,1.0544683933258057,0.1364942193031311,-1.2014501094818115,3436
71082,3.196134328842163,0.019761011004447937,-1.1465975046157837,3441
71152,4.184121608734131,0.2138296365737915,-1.179803490638733,3441
71222,4.4945526123046875,0.033281777054071426,-1.1662418842315674,3446
71292,4.0348405838012695,-0.08527588099241257,-1.136533498764038,3441
71362,3.2821578979492188,-0.14336222410202026,-1.1297900676727295,3441
71432,2.203216075897217,-0.28587931394577026,-1.0658737421035767,3446
71502,1.3410154581069946,-0.23095093667507172,-1.0576623678207397,3446
71572,0.5003966689109802,-0.34755614399909973,-1.047110915184021,3446
71642,0.044289443641901016,-0.2363065779209137,-1.0664269924163818,3431
71713,-0.31575870513916016,-0.1223631277680397,-1.039749026298523,3446
71782,-0.594338059425354,-0.12582515180110931,-1.005519986152649,3446
71852,-0.6546577215194702,-0.0645182803273201,-0.9636733531951904,3452
71922,-0.6879171133041382,-0.017969518899917603,-0.9448238611221313,3441
71993,-0.527243435382843,-0.01815536618232727,-0.9056411981582642,3441
72062,-0.4219091534614563,0.046670760959386826,-0.8805537223815918,3446
72133,-0.2209450751543045,-0.08141807466745377,-0.8342809081077576,3441
72202,-0.09835302084684372,0.038457125425338745,-0.7977772355079651,3431
72272,0.0615670345723629,-0.04323582723736763,-0.7859699130058289,3431
72342,0.0964607298374176,-0.02592100203037262,-0.8206512331962585,3436
72412,0.18624265491962433,-0.02427433803677559,-0.8926923274993896,3441
72482,0.15354157984256744,-0.09245061874389648,-0.9686763882637024,3441
72552,0.25664520263671875,-0.045574285089969635,-1.0265017747879028,3441
72622,0.2408667951822281,-0.022573107853531837,-1.0913809537887573,3441
72692,0.16593696177005768,0.09522177278995514,-1.1445039510726929,3436
72762,0.14320915937423706,-0.02564866654574871,-1.1389256715774536,3441
72832,0.07476028054952621,-0.05103393644094467,-1.172688364982605,3431
72902,0.058533649891614914,0.02812095172703266,-1.1811718940734863,3431
72972,0.1447688192129135,-0.09479834139347076,-1.151280403137207,3436
73042,0.01619926281273365,0.14529241621494293,-1.131971836090088,3436
73113,0.0321359820663929,-1.3549432754516602,-1.08077871799469,3431
73182,0.16226297616958618,-4.277865886688232,-1.028705358505249,3425
73252,0.11314956098794937,-5.959125995635986,-0.9787622094154358,3431
73322,2.198880434036255,-7.274646282196045,-0.9030574560165405,3425
73392,2.877570867538452,-7.450078010559082,-0.7768287658691406,3425
73462,3.1913061141967773,-6.595188140869141,-0.6671366095542908,3425
73532,2.845808982849121,-5.169707775115967,-0.5028336048126221,3425
73603,1.9450830221176147,-2.879638195037842,-0.46425408124923706,3425
73672,-1.000389814376831,-0.5971706509590149,-0.5251940488815308,3436
73742,-1.869814395904541,1.508819818496704,-0.5221134424209595,3441
73812,-2.540825843811035,3.6548900604248047,-0.5401755571365356,3441
73882,-2.550203561782837,5.8779401779174805,-0.5150004029273987,3441
73952,-2.2437572479248047,7.831416130065918,-0.4795285165309906,3431
74022,-1.7238668203353882,7.47532320022583,-0.4841243624687195,3431
74092,-1.0253219604492188,6.536900520324707,-0.4788581430912018,3425
74162,-0.42678380012512207,4.984563827514648,-0.470991313457489,3415
74232,0.0098224813118577,3.3295235633850098,-0.3681201636791229,3420
74302,0.3583688735961914,1.77567458152771,-0.26406392455101013,3420
74372,0.5905927419662476,0.48464763164520264,-0.12969525158405304,3415
74442,0.6386955380439758,-0.4921322762966156,-0.007153699174523354,3420
74512,0.5879015922546387,-1.0344657897949219,0.06781578063964844,3431
74582,0.4743793308734894,-1.308743953704834,0.12339640408754349,3425
74652,0.3886856436729431,-1.247903823852539,0.15307389199733734,3420
74722,0.2703353464603424,-1.0878099203109741,0.1555466502904892,3425
74792,0.08014380931854248,-0.5396838188171387,0.18524694442749023,3431
74862,0.07501409947872162,-0.39309951663017273,0.17590297758579254,3431
74932,0.017712971195578575,-0.09219857305288315,0.1689518243074417,3436
75002,0.06917595863342285,0.08671548962593079,0.1307862102985382,3425
75072,0.0063475011847913265,0.3200273811817169,0.18140670657157898,3425
75142,0.018132666125893593,0.3711499869823456,0.7430252432823181,3420
75212,-0.0012228648411110044,0.45483288168907166,2.084886074066162,3420
75282,-0.10986041277647018,0.545605480670929,4.089677810668945,3420
75352,-0.20514026284217834,0.4731820821762085,6.592414379119873,3420
75422,-0.30354583263397217,0.5783992409706116,9.125239372253418,3420
75492,-0.34593600034713745,0.4107459783554077,11.077482223510742,3420
75562,-0.3044997453689575,0.19339115917682648,12.479059219360352,3420
75632,-0.04467425495386124,-0.18052278459072113,13.444525718688965,3425
75702,-0.14641433954238892,-0.07772886753082275,14.041168212890625,3420
75772,-0.15359050035476685,0.1708851307630539,14.432414054870605,3415
75842,-0.005788395181298256,0.2327057272195816,14.657393455505371,3420
75912,0.10803554207086563,0.33818915486335754,14.784372329711914,3420
75982,0.1765262484550476,0.40942707657814026,14.802395820617676,3420
76052,0.14660976827144623,0.5441933870315552,14.802560806274414,3420
76122,0.24305757880210876,0.6153460741043091,14.778768539428711,3420
76192,0.11717435717582703,0.6214553117752075,14.743071556091309,3415
76262,0.259570449590683,0.4406096339225769,14.708680152893066,3415
76332,0.22199414670467377,0.3472461402416229,14.71168041229248,3420
76402,0.27319157123565674,0.2554563879966736,14.73254108428955,3420
76472,0.23875069618225098,0.16838784515857697,14.752350807189941,3420
76542,0.25942274928092957,0.11242841929197311,14.766173362731934,3420
76612,0.22182974219322205,0.02678420953452587,14.778484344482422,3420
76682,0.3592306673526764,0.05086902156472206,14.802871704101562,3420
76752,0.3625602424144745,0.0986071228981018,14.813103675842285,3409
76822,0.21713225543498993,0.23691558837890625,14.807473182678223,3409
76892,0.17262503504753113,0.26373159885406494,14.74964427947998,3409
76962,0.06605986505746841,0.30014553666114807,14.669448852539062,3409
77032,-0.07005047798156738,0.1614992767572403,14.60707950592041,3420
77102,-0.09939362853765488,0.1138870045542717,14.558405876159668,3415
77172,-0.13990582525730133,-0.029157539829611778,14.545397758483887,3415
77242,-0.06332439929246902,-0.03964179381728172,14.528778076171875,3420
77312,-0.043258920311927795,-0.09342551976442337,14.493568420410156,3415
77382,-0.0421709306538105,-0.053685370832681656,14.48442268371582,3409
77452,-0.007990999147295952,-0.0519418902695179,14.497197151184082,3415
77522,0.021083256229758263,-0.01143092755228281,14.528627395629883,3420
77592,0.07766538858413696,-0.08573392778635025,14.56529712677002,3415
77662,0.05690701678395271,0.048063974827528,14.58193588256836,3409
77732,0.015070567838847637,0.09036243706941605,14.585474014282227,3409
77802,-0.026267392560839653,0.09397197514772415,14.575235366821289,3415
77872,-0.07584206014871597,0.10532321035861969,14.541885375976562,3415
77942,-0.10895990580320358,0.03824940323829651,14.510834693908691,3409
78012,-0.1392107605934143,0.025065593421459198,14.478224754333496,3409
78082,-0.14262622594833374,0.16254431009292603,14.436263084411621,3409
78152,-0.1380896270275116,0.2019045501947403,14.36049747467041,3409
78222,-0.13109247386455536,0.18418894708156586,14.253849983215332,3409
78292,-0.06161743402481079,0.15153995156288147,14.1701021194458,3409
78362,0.010032759979367256,0.03265249729156494,14.160459518432617,3409
78432,0.06373538821935654,0.005747471936047077,14.183420181274414,3409
78502,0.1944931149482727,-0.04878741875290871,14.248791694641113,3404
78572,0.0905207097530365,-0.06233737990260124,14.296748161315918,3404
78642,0.12447509169578552,-0.07658462226390839,14.310992240905762,3404
78712,0.009499743580818176,-0.08338472992181778,14.34341049194336,3409
78782,0.0025113553274422884,-0.11359903216362,14.334735870361328,3409
78852,-0.10219048708677292,-0.1005496084690094,14.330584526062012,3404
78922,-0.1318305879831314,-0.06797634065151215,14.3472261428833,3404
78992,-0.11527901887893677,-0.039329707622528076,14.361849784851074,3409
79062,-0.01342194527387619,-0.18479782342910767,14.410754203796387,3800
79132,0.014417114667594433,-1.7300277948379517,0.43277403712272644,3811
79202,-0.17329305410385132,-8.769923210144043,1.8468021154403687,3811
79272,-0.9188885688781738,-20.3814640045166,3.5965964794158936,3816
79342,-3.1414506435394287,-33.96364212036133,4.908603191375732,3821
79412,-22.27353858947754,-9.464505195617676,-8.849409103393555,3821
79482,-50.932987213134766,-37.3337516784668,-53.4051628112793,3826
79552,-4.752645969390869,5.871880054473877,-50.79863357543945,3826
79622,-14.911968231201172,1.970839500427246,-61.59830856323242,3826
79692,-9.31818962097168,-1.128188133239746,-68.66922760009766,3832
79762,-8.285572052001953,-0.8326757550239563,-68.67161560058594,3832
79832,-7.004800319671631,-0.6185620427131653,-69.11676025390625,3832
79902,-5.882036209106445,-0.35491785407066345,-69.50407409667969,3837
79972,-4.8385910987854,-0.2904592752456665,-69.87281799316406,3832
80042,-3.6403985023498535,-0.15995515882968903,-70.36856842041016,3837
80112,-3.1183488368988037,-0.1831282675266266,-70.33741760253906,3837
80182,-2.558929443359375,-0.11981817334890366,-70.7095947265625,3061
80252,-1.2235686779022217,0.6266725659370422,-70.7408676147461,3256
80322,2.121033191680908,2.3885679244995117,-70.1752700805664,3826
80392,-0.02727833203971386,-0.5546467900276184,-70.73787689208984,3832
80462,-0.6957314610481262,-0.3988853991031647,-69.98365020751953,3837
80532,-0.9124011397361755,-0.4002520740032196,-69.40345764160156,3837
80602,-1.032006859779358,-0.32940974831581116,-68.83744812011719,3837
80672,-1.0405715703964233,-0.322611004114151,-68.37617492675781,3842
80742,-1.0345803499221802,-0.2955946624279022,-67.91573333740234,3842
80812,-1.018180251121521,-0.2959868311882019,-67.47142028808594,3842
80882,-0.9568233489990234,-0.29557546973228455,-67.04415130615234,3848
80952,-0.9262039065361023,-0.2662702798843384,-66.59417724609375,3842
81022,-0.8944288492202759,-0.27854153513908386,-66.16857147216797,3848
81092,-0.7834164500236511,-0.2988849878311157,-65.74929809570312,3848
81162,-0.6633809804916382,-0.3130336403846741,-65.33832550048828,3853
81232,-0.6675444841384888,-0.3164467513561249,-64.90599822998047,3848
81302,-0.6084054708480835,-0.298247367143631,-64.4718017578125,3853
81372,-0.60660320520401,-0.29345276951789856,-64.04822540283203,3853
81442,-0.46926066279411316,-0.23940947651863098,-63.62241744995117,3853
81512,-0.48528191447257996,-0.24429906904697418,-63.20003128051758,3853
81582,-0.4028477668762207,-0.25385966897010803,-62.7881965637207,3853
81652,-0.4217800498008728,-0.23945073783397675,-62.36758804321289,3858
81722,-0.4367195665836334,-0.25952187180519104,-61.95418930053711,3848
81792,-0.4276329278945923,-0.2593938410282135,-61.54422378540039,3858
81862,-0.39708662033081055,-0.16431912779808044,-61.12522506713867,3858
81932,-0.40526047348976135,-0.20373669266700745,-60.7191162109375,3858
82002,-0.4015813171863556,-0.20379801094532013,-60.31618118286133,3858
82072,-0.3991467356681824,-0.20211941003799438,-59.913734436035156,3863
82142,-0.2716538608074188,-0.30269062519073486,-59.522586822509766,3858
82212,-0.28424757719039917,-0.29880496859550476,-59.12571334838867,3863
82282,-0.27357882261276245,-0.2790617048740387,-58.72954177856445,3863
82352,-0.2811644971370697,-0.26583245396614075,-58.33701705932617,3863
82422,-0.3025117814540863,-0.24132925271987915,-57.94513702392578,3863
82492,-0.29605185985565186,-0.1816975325345993,-57.556732177734375,3863
82562,-0.27739274501800537,-0.21051043272018433,-57.1722526550293,3863
82632,-0.24769647419452667,-0.28046587109565735,-56.791893005371094,3869
82702,-0.26344311237335205,-0.24738511443138123,-56.40992736816406,3869
82772,-0.30554625391960144,-0.2272574007511139,-56.03006362915039,3869
82842,-0.30012303590774536,-0.22668108344078064,-55.65592956542969,3869
82912,-0.3073170781135559,-0.2167789787054062,-55.28173065185547,3869
82982,-0.26792094111442566,-0.19803012907505035,-54.90812683105469,3869
83052,-0.27472880482673645,-0.23005740344524384,-54.537193298339844,3874
