timeStamp,stateEstimate.roll,stateEstimate.pitch,stateEstimate.yaw,pm.vbatMV
42540,-0.10649580508470535,0.2089182734489441,0.07923465222120285,3726
42610,-0.10686342418193817,0.21169674396514893,0.07716108113527298,3726
42680,-0.11401830613613129,0.21415086090564728,0.08322633802890778,3721
42750,-0.11354915052652359,0.21504522860050201,0.08360321074724197,3721
42820,-0.11060786247253418,0.21196067333221436,0.08224515616893768,3721
42890,-0.11062058061361313,0.2109220027923584,0.08065813779830933,3721
42960,-0.11500544846057892,0.2059677094221115,0.07545848190784454,3721
43030,-0.10361399501562119,0.20681539177894592,0.07909085601568222,3716
43100,-0.1037023589015007,0.20131206512451172,0.07435478270053864,3721
43170,-0.10262200236320496,0.1971026510000229,0.07150664180517197,3721
43240,-0.10692881792783737,0.19717560708522797,0.06459185481071472,3721
43310,-0.11026198416948318,0.18865080177783966,0.055225670337677,3721
43380,-0.10502689331769943,0.20132222771644592,0.06879808008670807,3721
43450,-0.08645545691251755,0.19973339140415192,0.0821903645992279,3721
43520,-0.10205338895320892,0.21633490920066833,0.0787663385272026,3726
43590,-0.10124766081571579,0.21964582800865173,0.07665785402059555,3726
43660,-0.10167530924081802,0.24322427809238434,0.08452608436346054,3721
43730,-0.08097909390926361,0.1858951896429062,0.03576634079217911,3721
43800,-0.09186588227748871,0.20206612348556519,0.04550797864794731,3721
43870,-0.08867853134870529,0.19839505851268768,0.03751392662525177,3721
43940,-0.08506785333156586,0.1705060452222824,0.021304961293935776,3721
44010,0.0,0.0,0.0,3721
44080,-0.0021812596824020147,-0.0021098998840898275,-0.0011895349016413093,3721
44150,-0.0017685913480818272,0.003357039764523506,-0.001510603236965835,3721
44220,-0.00044937830534763634,0.006808269768953323,-0.0009766138391569257,3721
44290,0.0007746937917545438,0.0163454357534647,-0.002721716184169054,3721
44360,0.0012206234969198704,0.018923666328191757,-0.002422971883788705,3721
44430,-0.0012438405537977815,0.01074792630970478,-0.0030078396666795015,3721
44500,-0.00146255805157125,0.016921447589993477,-0.0055245389230549335,3721
44570,-0.0005972390645183623,0.017478598281741142,-0.005782075691968203,3721
44640,-0.0015112892724573612,0.018568485975265503,-0.006701782811433077,3716
44710,-0.0014744470827281475,0.020098183304071426,-0.00659931031987071,3721
44780,-0.0009260659571737051,0.026783332228660583,-0.006133748684078455,3721
44850,-0.0028047189116477966,0.02641901932656765,-0.004907608963549137,3721
44920,-0.0030516113620251417,0.03636784106492996,-0.006968974601477385,3721
44990,-0.002047046786174178,0.039075687527656555,-0.008413408882915974,3726
45060,0.001009404193609953,0.039190515875816345,0.0017432080348953605,3040
45130,-0.00377919664606452,0.031924497336149216,-0.0798230692744255,2919
45200,-0.06841906160116196,1.3166160583496094,0.7826285362243652,3140
45270,-0.1237252950668335,1.4611550569534302,1.5015027523040771,3214
45340,0.5291082859039307,0.655674397945404,1.9986220598220825,3235
45410,0.2541534900665283,1.4180762767791748,2.0681183338165283,3235
45480,-0.3575008809566498,0.9437299370765686,1.9662725925445557,3278
45550,-1.341958999633789,-0.26336970925331116,1.7412173748016357,3299
45620,-0.1397072970867157,-0.7660021781921387,1.7487412691116333,3293
45690,-0.4838823676109314,-0.7239288687705994,1.826042652130127,3272
45760,-0.22550706565380096,-0.6211463212966919,1.8246996402740479,3262
45830,-0.41970762610435486,-0.12638740241527557,1.870100736618042,3246
45900,-0.5315664410591125,-0.11110319197177887,1.8164288997650146,3230
45970,-0.5408053994178772,-0.04019403085112572,1.8293581008911133,3225
46040,-0.440594345331192,-0.14912964403629303,1.934997797012329,3219
46110,-0.4732421040534973,0.09638213366270065,2.087505578994751,3219
46180,-0.17202846705913544,0.470936119556427,2.185944080352783,3225
46250,-0.12788528203964233,0.4846377670764923,2.179981231689453,3230
46320,-0.039505619555711746,0.887545108795166,2.0715999603271484,3230
46390,0.04541315138339996,0.8932483792304993,1.9664956331253052,3235
46460,0.05907510221004486,1.1231286525726318,1.8007068634033203,3225
46530,-0.25812453031539917,0.638552188873291,1.6382945775985718,3225
46600,0.02540472522377968,0.5626140832901001,1.4672067165374756,3214
46670,0.04364326596260071,0.32820066809654236,1.2781716585159302,3198
46740,-0.06877990812063217,0.5876055955886841,0.9952617287635803,3204
46810,-0.171167254447937,0.1264060139656067,0.46647313237190247,3209
46880,-0.6404899954795837,-0.18845921754837036,-0.7412175536155701,3219
46950,-0.21679607033729553,-0.24397492408752441,-1.9693496227264404,3230
47020,0.25865438580513,-0.6906489133834839,-2.356785535812378,3219
47090,-0.16646577417850494,-0.3715639114379883,-2.213754892349243,3204
47160,-0.5141607522964478,-0.33305180072784424,-1.9085921049118042,3204
47230,-0.7889002561569214,0.1601182371377945,-1.8294447660446167,3214
47300,0.07798589020967484,-0.3000812530517578,-2.2564265727996826,3219
47370,-0.005371340084820986,0.3811153471469879,-2.4310781955718994,3214
47440,0.18501625955104828,0.09586957097053528,-2.0956008434295654,3214
47510,-0.22851824760437012,-0.03714397922158241,-1.3157284259796143,3219
47580,-0.5426467657089233,-0.30621641874313354,-0.7127352356910706,3209
47650,-0.4422464966773987,-0.272318571805954,-0.4405522644519806,3204
47720,-0.4985769987106323,0.13124075531959534,-0.2440493404865265,3198
47790,-0.2622818648815155,0.31232383847236633,-0.128385528922081,3204
47860,-0.16815124452114105,0.32210737466812134,-0.09378058463335037,3204
47930,0.11176163703203201,0.3642306327819824,-0.0005851631867699325,3204
48000,-0.04057728499174118,0.3788911998271942,-0.14401863515377045,3198
48070,0.2398943156003952,0.31458747386932373,-0.3518684506416321,3204
48140,0.1334189623594284,-1.4200994968414307,-0.3768256902694702,3204
48210,-8.559583511669189e-05,-2.939734697341919,-0.2905958294868469,3198
48280,0.04619600623846054,-4.717072486877441,-0.25351640582084656,3193
48350,0.04011817276477814,-5.647322177886963,-0.14579220116138458,3188
48420,2.333303689956665,-6.6100993156433105,-0.19957342743873596,3193
48490,2.5699851512908936,-6.40578556060791,-0.03958256542682648,3193
48560,2.7579360008239746,-5.921398639678955,0.20437462627887726,3193
48630,2.391854763031006,-4.312093257904053,0.24668040871620178,3193
48700,2.004843235015869,-3.1840615272521973,0.19667363166809082,3198
48770,1.5663063526153564,-1.5725582838058472,-0.0027289206627756357,3193
48840,1.3896516561508179,-0.5960041880607605,-0.27803269028663635,3182
48910,1.097643494606018,-0.018653040751814842,-0.38958993554115295,3188
48980,0.6976619362831116,0.4097493886947632,-0.3261195421218872,3198
49050,0.27650246024131775,0.49952077865600586,-0.13716872036457062,3209
49120,0.03057815134525299,0.37458816170692444,0.16666384041309357,3204
49190,-0.2694280445575714,0.3322969973087311,0.5287306308746338,3198
49260,-0.806303083896637,-0.017057722434401512,0.8312333822250366,3193
49330,-2.7145094871520996,-0.049246639013290405,1.0522220134735107,3182
49400,-3.7368478775024414,-0.2512790560722351,1.2492777109146118,3193
49470,-4.0715742111206055,-0.5696220397949219,1.4291248321533203,3188
49540,-3.5987868309020996,-0.5849134922027588,1.5259672403335571,3188
49610,-2.9514453411102295,-0.6803765296936035,1.4938874244689941,3188
49680,-2.0477328300476074,-0.8010860681533813,1.3587021827697754,3188
49750,-1.3572450876235962,-0.6582233905792236,1.1865540742874146,3182
49820,-0.5084940195083618,-0.5397607684135437,0.9960843324661255,3177
49890,0.11443547904491425,-0.4730731248855591,0.8203023076057434,3182
49960,0.5027351379394531,-0.41999587416648865,0.6166634559631348,3182
50030,0.7620947957038879,-0.45357102155685425,0.4791487455368042,3177
50100,0.8650147914886475,-0.4886341094970703,0.38248008489608765,3177
50170,0.8244630098342896,-0.18476632237434387,0.22936208546161652,3177
50240,0.8292540311813354,-0.19391261041164398,0.057391293346881866,3182
50310,0.6460222601890564,-0.22419393062591553,-0.012875497341156006,3177
50380,0.49841102957725525,-0.17277958989143372,0.02250944823026657,3172
50450,0.12164314091205597,-0.13717250525951385,0.16546066105365753,3177
50520,-0.22276921570301056,-0.033471282571554184,0.3772951066493988,3177
50590,-0.5524066090583801,-0.07311565428972244,0.6130855083465576,3172
50660,-0.8620316982269287,0.015420403331518173,0.8304786682128906,3172
50730,-1.002822756767273,-0.06085880473256111,0.9486228227615356,3167
50800,-0.9838411211967468,0.06544246524572372,1.0083427429199219,3167
50870,-0.8043110966682434,0.060715202242136,1.0181238651275635,3167
50940,-0.6877694725990295,0.13247747719287872,1.0060254335403442,3167
51010,-0.46178334951400757,0.0836629569530487,0.9576120972633362,3167
51080,-0.36978742480278015,0.0004946317640133202,0.9691042304039001,3177
51150,-0.3231286108493805,-0.03433307632803917,1.0080409049987793,3188
51220,-0.2354627251625061,-0.14788399636745453,0.9911236763000488,3188
51290,-0.1575324833393097,0.05494329705834389,0.9366859197616577,3188
51360,0.13809499144554138,-0.008821557275950909,0.8179751038551331,3177
51430,0.3976507782936096,0.19656668603420258,0.639789879322052,3167
51500,0.5467178821563721,0.10242465883493423,0.508823037147522,3156
51570,0.1833924502134323,0.1335660219192505,0.48858970403671265,3151
51640,-0.06545505672693253,0.030459754168987274,0.530185878276825,3161
51710,-0.1013609766960144,-0.2839704751968384,0.5968962907791138,3161
51780,-0.09047416597604752,-0.08806928247213364,0.647430419921875,3161
51850,-0.24185074865818024,-0.1479751020669937,0.6175406575202942,3161
51920,0.1508798897266388,0.00801488570868969,0.5941940546035767,3161
51990,-0.031227359548211098,0.189230278134346,0.4635675251483917,3156
52060,0.14762263000011444,0.1050298735499382,0.3092987537384033,3156
52130,0.23107483983039856,0.012928778305649757,0.15686249732971191,3161
52200,0.10689887404441833,-0.0800141766667366,0.1389680802822113,3167
52270,-0.3261932134628296,-0.00444423221051693,0.2472248524427414,3167
52340,-0.5240769982337952,-0.07675900310277939,0.29912617802619934,3161
52410,-0.5458082556724548,-0.32326847314834595,0.35227975249290466,3161
52480,-0.5060225129127502,-0.4131920039653778,0.37735316157341003,3161
52550,-0.17875514924526215,-0.498719722032547,0.21546614170074463,3161
52620,0.2989404797554016,-0.25723710656166077,-0.022612513974308968,3161
52690,-1.0658239126205444,-0.6437388062477112,0.13713553547859192,3161
52760,-2.496613025665283,-0.20235195755958557,0.8204306364059448,3156
52830,-4.32676887512207,-0.05723707005381584,1.6224830150604248,3146
52900,-4.704461574554443,0.31385987997055054,2.258121967315674,3140
52970,-5.056031703948975,0.4498390555381775,2.9033796787261963,3140
53040,-4.645228862762451,0.22324238717556,3.3547329902648926,3140
53110,-4.243679046630859,0.6552256941795349,3.538872480392456,3151
53180,-3.328338384628296,0.4769272208213806,3.3238894939422607,3151
53250,-2.7674400806427,1.2789348363876343,2.904069185256958,3151
53320,-2.344639778137207,1.5694342851638794,2.2806687355041504,3146
53390,-0.3195408582687378,-0.1448373943567276,-0.20582030713558197,3051
53460,-4.568337917327881,-2.4520912170410156,-0.7152969241142273,3135
53530,-7.234522342681885,-5.151646614074707,-0.6929744482040405,3151
53600,-7.875819683074951,-5.397372722625732,-0.36737748980522156,3156
53670,-6.813983917236328,-4.67851448059082,0.03307918459177017,3151
53740,-4.800425052642822,-2.8173601627349854,0.3666408658027649,3156
53810,-2.1546332836151123,-1.8172227144241333,0.5219752788543701,3156
53880,0.09557138383388519,-0.7549461126327515,0.697486162185669,3167
53950,-0.27825209498405457,-0.6807479858398438,0.7916772961616516,3167
54020,0.21249337494373322,-0.4977990984916687,0.8923629522323608,3167
54090,0.5193019509315491,0.026226505637168884,0.9770914912223816,3156
54160,0.8358590006828308,-0.09056577831506729,1.1602157354354858,3151
54230,0.5491489171981812,-0.1570138931274414,1.2239916324615479,3151
54300,0.516176164150238,0.0005970987840555608,1.0658717155456543,3140
54370,0.04585055634379387,0.5204797983169556,0.8500899076461792,3135
54440,4.218997478485107,0.41814368963241577,0.7758803963661194,3135
54510,3.135369062423706,-2.6493849754333496,1.248283863067627,3135
54580,1.0077651739120483,-3.2705156803131104,1.5118541717529297,3130
54650,0.16295941174030304,-4.9924635887146,1.90546452999115,3130
54720,-0.12473955005407333,-5.113742828369141,2.1515443325042725,3140
54790,-0.5389986634254456,-5.332449913024902,2.258632183074951,3135
54860,-0.9167484641075134,-4.882887363433838,2.044281482696533,3140
54930,-1.263877034187317,-3.976226329803467,1.7477624416351318,3146
55000,-1.2033169269561768,-2.682011127471924,1.3526644706726074,3146
55070,-1.0264545679092407,-1.4795770645141602,0.9856012463569641,3146
55140,-1.139242172241211,-1.5879409313201904,0.8844816088676453,3140
55210,-1.6183397769927979,-1.2982409000396729,1.0834420919418335,3135
55280,-1.6276829242706299,-0.32342955470085144,1.0180944204330444,3140
55350,-0.7287455797195435,-0.46907928586006165,0.3745240867137909,3146
55420,4.139274597167969,-0.11378754675388336,-0.5444045662879944,3156
55490,8.858738899230957,-0.6104074120521545,-1.2540309429168701,3146
55560,10.385456085205078,-1.9164321422576904,-1.8162944316864014,3130
55630,9.8661470413208,-1.6554313898086548,-2.3285906314849854,3119
55700,8.245931625366211,-1.1188762187957764,-2.0688793659210205,3124
55770,5.835844993591309,-0.5878292322158813,-1.4623545408248901,3130
55840,3.560373544692993,-0.3630427420139313,-0.7436252236366272,3124
55910,1.6121028661727905,-0.10815951973199844,-0.043589986860752106,3135
55980,0.014671935699880123,-0.16812580823898315,0.6040145754814148,3135
56050,-0.8524243235588074,-0.19350884854793549,1.1034237146377563,3135
56120,-2.2324790954589844,-0.5148686766624451,1.4939743280410767,3130
56190,-2.876351833343506,-0.9638697504997253,1.7053321599960327,3135
56260,-3.604447603225708,-1.4411568641662598,1.6374731063842773,3135
56330,-4.447977542877197,-1.7664715051651,1.3893810510635376,3130
56400,-5.935184478759766,-1.7892483472824097,1.0944325923919678,3124
56470,-5.363842010498047,-1.8640003204345703,0.8226619362831116,3124
56540,-4.501920223236084,1.591029405593872,0.7772405743598938,3130
56610,-3.154867172241211,6.141848564147949,0.605040431022644,3135
56680,-1.4333856105804443,6.961589336395264,0.25299617648124695,3135
56750,-0.2253963053226471,7.25631046295166,-0.04777827113866806,3124
56820,0.8060529828071594,6.175773620605469,-0.19934743642807007,3119
56890,1.294171690940857,4.9130330085754395,-0.2778618335723877,3124
56960,1.427594542503357,3.3450770378112793,-0.2780790627002716,3124
57030,1.495084524154663,1.9085837602615356,-0.28362205624580383,3130
57100,1.389783501625061,0.6903194189071655,-0.156203493475914,3124
57170,1.096329689025879,-0.1569328010082245,0.10739755630493164,3124
57240,0.9444940090179443,-0.8449961543083191,0.47643575072288513,3124
57310,0.5943333506584167,-1.0707515478134155,0.836017906665802,3135
57380,0.17904573678970337,-1.4877851009368896,1.162752389907837,3140
57450,0.16324345767498016,-4.768429756164551,1.4725831747055054,3135
57520,0.14334736764431,-7.052064418792725,1.5971300601959229,3130
57590,-0.03876250237226486,-8.166309356689453,1.677075743675232,3124
57660,-0.201994389295578,-7.853987216949463,1.8529736995697021,3119
57730,-0.384769082069397,-6.517787933349609,1.8459968566894531,3114
57800,-0.1925870031118393,-4.660068988800049,1.7666209936141968,3119
57870,-0.4039941132068634,-0.9144860506057739,1.7103358507156372,3130
57940,-0.2424968034029007,4.630593776702881,1.4090003967285156,3135
58010,-0.010680368170142174,7.022692680358887,0.6217165589332581,3135
58080,0.13481400907039642,8.201072692871094,-0.1871025562286377,3130
58150,0.5672245025634766,7.7474141120910645,-0.8791484236717224,3119
58220,0.4410025179386139,6.552360534667969,-1.3638275861740112,3119
58290,0.6647251844406128,5.3904218673706055,-1.5447853803634644,3109
58360,0.715789258480072,4.0825018882751465,-1.2904224395751953,3109
58430,0.8468112349510193,2.356391191482544,-0.6043147444725037,3114
58500,1.2582038640975952,0.816178023815155,0.3843485116958618,3119
58570,1.2266792058944702,-0.29222598671913147,1.4219821691513062,3119
58640,1.1388455629348755,-0.8856589198112488,2.39554500579834,3119
58710,0.7256333231925964,-1.0459901094436646,3.117018222808838,3119
58780,0.7940056920051575,-0.9503918290138245,3.439812660217285,3119
58850,0.5637903809547424,-0.8880740404129028,3.5482888221740723,3119
58920,0.6239371299743652,-0.8799751400947571,3.6448068618774414,3124
58990,0.01722482033073902,-0.37773245573043823,3.6104061603546143,3124
59060,-0.10124961286783218,-0.33026331663131714,3.4579215049743652,3124
59130,-0.19388741254806519,-0.18439579010009766,3.281442403793335,3130
59200,-0.2720184922218323,-0.12437327206134796,3.099086284637451,3124
59270,-0.36368411779403687,0.133761465549469,2.9977240562438965,3119
59340,-0.3801698386669159,0.3165535628795624,2.890392541885376,3119
59410,-0.28446224331855774,0.42784494161605835,2.7456560134887695,3119
59480,-0.42416271567344666,0.5737640261650085,2.491429090499878,3119
59550,-0.3660593628883362,0.28637000918388367,2.181579828262329,3114
59620,-0.7395493388175964,0.5145200490951538,1.9699726104736328,3114
59690,-0.47764167189598083,0.06635463237762451,1.7417782545089722,3109
59760,-0.4049547016620636,0.20020930469036102,1.4930638074874878,3114
59830,-0.6065744757652283,0.4744706451892853,0.950139582157135,3109
59900,-0.6952095031738281,0.6644619703292847,0.1541796773672104,3114
59970,-0.80879807472229,0.6034369468688965,-0.5726405382156372,3114
60040,-0.6892569065093994,0.530117392539978,-1.0913987159729004,3114
60110,-0.5908944606781006,0.43320438265800476,-1.3965139389038086,3114
60180,-0.5670023560523987,0.27928027510643005,-1.6405878067016602,3119
60250,-0.500878632068634,0.13659456372261047,-1.9144694805145264,3119
60320,-0.24482481181621552,0.06238364428281784,-2.1844661235809326,3114
60390,-0.41572073101997375,-0.24236884713172913,-2.3358216285705566,3119
60460,-0.2195512354373932,-0.018914898857474327,-2.5120620727539062,3119
60530,-0.09087324142456055,-0.2385350912809372,-2.6047704219818115,3114
60600,-0.47385042905807495,-0.14013929665088654,-2.5823888778686523,3119
60670,-0.04986966401338577,-0.2868397533893585,-2.6629252433776855,3119
60740,-0.1443985104560852,-0.13726921379566193,-2.7634899616241455,3109
60810,-0.29415422677993774,-0.010768167674541473,-2.719160795211792,3114
60880,-0.2501823306083679,0.11047516018152237,-2.5953733921051025,3119
60950,-0.109929159283638,0.036811161786317825,-2.4881601333618164,3119
61020,0.015375283546745777,-0.06659917533397675,-2.428342580795288,3119
61090,-0.2812960147857666,0.042881254106760025,-2.3868885040283203,3114
61160,-0.1862993687391281,-0.1117200255393982,-2.2805123329162598,3109
61230,0.03477461636066437,-0.035754699259996414,-2.0673725605010986,3114
61300,-0.014820275828242302,-0.18310467898845673,-1.8767651319503784,3114
61370,-0.06720168888568878,0.06887602061033249,-1.5336965322494507,3114
61440,-0.24355264008045197,0.337599515914917,-0.5470612049102783,3103
61510,-0.14710019528865814,0.477836549282074,1.1465506553649902,3087
61580,-0.3121413588523865,0.6948204040527344,3.396662712097168,3082
61650,-0.05769343674182892,0.6106531023979187,6.166584491729736,3072
61720,0.33769717812538147,0.4348766505718231,9.33246898651123,3072
61790,0.16211344301700592,0.4493275582790375,12.966989517211914,3072
61860,-0.14716117084026337,0.46960750222206116,16.96914291381836,3077
61930,0.13150954246520996,-0.1500420719385147,21.079696655273438,3077
62000,0.39530086517333984,-0.22969578206539154,25.23194122314453,3077
62070,0.47198253870010376,-0.2962615191936493,29.092082977294922,3077
62140,0.30911698937416077,0.26233020424842834,32.83913040161133,3082
62210,-0.5299779772758484,0.5417816638946533,36.62864685058594,3082
62280,-0.45632293820381165,0.11387700587511063,40.34471130371094,3098
62350,-0.26988285779953003,0.03690413758158684,43.71070098876953,3119
62420,0.4023973345756531,-0.24396415054798126,46.631351470947266,3135
62490,1.005407691001892,-0.4267369508743286,48.81235122680664,3140
62560,1.4354352951049805,-0.21202275156974792,50.259437561035156,3140
62630,1.2170549631118774,-0.11737707257270813,51.29902267456055,3146
62700,1.0273555517196655,0.1228204146027565,51.97294616699219,3140
62770,1.1489622592926025,0.01872405968606472,52.371891021728516,3135
62840,0.6749449968338013,0.38378289341926575,52.674095153808594,3135
62910,0.4744747579097748,0.42518237233161926,52.888431549072266,3130
62980,0.2045682817697525,0.4123905897140503,53.096229553222656,3130
63050,-0.04922012239694595,0.4917987287044525,53.332069396972656,3119
63120,-0.030373189598321915,0.31045475602149963,53.46980667114258,3119
63190,0.006890809163451195,0.6493036150932312,53.460723876953125,3114
63260,0.014249131083488464,0.36736559867858887,53.350494384765625,3109
63330,-0.3625936508178711,0.39984747767448425,53.21532440185547,3109
63400,0.24068155884742737,0.21066784858703613,53.02207565307617,3114
63470,0.34309715032577515,0.14357250928878784,52.73172378540039,3114
63540,0.631714403629303,-0.07928366214036942,52.547019958496094,3114
63610,0.2774397134780884,-0.0016226115403696895,52.47359848022461,3119
63680,0.49399474263191223,-0.1000436469912529,52.48057174682617,3135
63750,-0.015917619690299034,-0.005317785311490297,52.621726989746094,3161
63820,0.0799577534198761,-0.2590179145336151,52.72254180908203,3172
63890,-0.44372519850730896,-0.05591728538274765,52.79307174682617,3172
63960,-0.5765787363052368,0.14298798143863678,52.79952621459961,3198
64030,-0.8323999047279358,0.3139480650424957,52.884063720703125,3182
64100,-0.5093193650245667,0.3184524178504944,52.90182876586914,3146
64170,-0.4030957520008087,0.27310076355934143,52.88079071044922,3109
64240,-0.262793630361557,0.17582949995994568,53.033447265625,3087
64310,-0.2701758146286011,0.01263932604342699,53.434940338134766,3082
64380,-0.37280818819999695,0.03175809234380722,54.169246673583984,3072
64450,-0.4581516683101654,0.08942535519599915,55.701778411865234,3077
64520,-0.4294170141220093,0.06403980404138565,57.81641387939453,3082
64590,-0.30947163701057434,0.12392399460077286,60.308135986328125,3087
64660,-0.7920775413513184,0.05124485865235329,63.061187744140625,3087
64730,-0.2781071960926056,0.016031285747885704,66.02682495117188,3087
64800,-0.3473430573940277,-0.05211101472377777,69.01620483398438,3087
64870,-0.365156352519989,0.12113843113183975,71.58013153076172,3087
64940,-0.046613845974206924,-0.15174822509288788,73.09050750732422,3093
65010,0.5389170050621033,-0.21753419935703278,73.8418960571289,3093
65080,0.3366660475730896,0.08045437932014465,73.986083984375,3098
65150,0.5728682279586792,0.07414774596691132,73.84117889404297,3098
65220,0.7931829690933228,-2.0110538005828857,73.46714782714844,3093
65290,0.9448299407958984,-3.7820074558258057,72.97058868408203,3098
65360,0.6728653907775879,-5.26922082901001,72.44676208496094,3103
65430,1.238743543624878,-6.2278642654418945,71.87973022460938,3098
65500,3.0870063304901123,-6.500316143035889,71.21399688720703,3098
65570,3.4765632152557373,-5.492105484008789,70.40748596191406,3098
65640,3.414062023162842,-4.614435195922852,69.64918518066406,3098
65710,3.1205623149871826,-3.3711986541748047,68.94084167480469,3103
65780,2.358685255050659,-1.909770131111145,68.2922134399414,3119
65850,2.0132198333740234,-0.6426267623901367,67.74457550048828,3114
65920,1.5317438840866089,-0.10606877505779266,67.44338989257812,3114
65990,0.858574628829956,0.5474715232849121,67.55549621582031,3114
66060,0.22577036917209625,0.7012172341346741,67.70008087158203,3098
66130,0.07083079218864441,0.8541290760040283,67.78627014160156,3103
66200,-0.20581310987472534,0.5923775434494019,67.97959899902344,3098
66270,-0.2110966295003891,0.14170578122138977,68.28545379638672,3098
66340,-0.4200231432914734,-0.033965472131967545,68.69847106933594,3103
66410,-0.5994581580162048,-0.34708428382873535,69.08786010742188,3103
66480,-0.5763959884643555,-0.4989334046840668,69.3341064453125,3098
66550,-0.8321195244789124,-1.006422996520996,69.43270111083984,3103
66620,-0.6695042848587036,-0.8852680325508118,69.58879089355469,3103
66690,-0.7311043739318848,-0.8943953514099121,70.00525665283203,3103
66760,-0.3939538300037384,-0.9657637476921082,70.31825256347656,3109
66830,-0.3365562856197357,-0.9105366468429565,70.4918212890625,3109
66900,0.19957487285137177,-0.8303409814834595,70.77167510986328,3109
66970,0.912632942199707,-0.730160653591156,71.3975601196289,3098
67040,1.0391591787338257,-0.16354124248027802,72.66925811767578,3103
67110,1.0770193338394165,-0.1507945954799652,74.31938171386719,3098
67180,0.5658179521560669,-0.0129071194678545,75.74530792236328,3098
67250,0.07692573964595795,-0.1678653508424759,76.72572326660156,3103
67320,-0.34642985463142395,-0.21415847539901733,77.42752075195312,3103
67390,-0.5821362733840942,-0.2207307368516922,77.8510971069336,3109
67460,-0.6506474018096924,-0.312710165977478,78.08939361572266,3109
67530,-0.6253222227096558,-0.2620779871940613,78.19661712646484,3109
67600,-0.6015263199806213,-0.3448767364025116,78.29190826416016,3109
67670,-0.3623335361480713,-0.28891971707344055,78.37272644042969,3098
67740,-0.28966400027275085,-0.2443469911813736,78.40354919433594,3103
67810,-0.26842501759529114,-0.08930855989456177,78.44062805175781,3103
67880,-0.18401215970516205,-0.2770339548587799,78.97746276855469,3103
67950,-0.22109588980674744,-0.22866281867027283,80.28580474853516,3098
68020,-0.45255789160728455,-0.35149669647216797,82.19200897216797,3103
68090,-0.7473198771476746,-0.6103518009185791,84.13473510742188,3103
68160,-1.1596237421035767,-0.49371448159217834,85.57080078125,3103
68230,-1.0612597465515137,-0.6164102554321289,86.50474548339844,3098
68300,-2.207707166671753,-0.6535701155662537,87.1021499633789,3098
68370,-3.3653135299682617,-0.14300255477428436,87.60575866699219,3103
68440,-3.6231586933135986,0.42801758646965027,88.09264373779297,3103
68510,-3.586365222930908,2.7072291374206543,88.71022033691406,3103
68580,-2.9364728927612305,4.710072994232178,89.17105102539062,3109
68650,-2.304940700531006,7.0463995933532715,89.41046905517578,3109
68720,-1.263475775718689,7.083156585693359,89.39488220214844,3103
68790,-0.7352097630500793,6.419530391693115,89.43948364257812,3103
68860,-0.094454325735569,5.139303207397461,89.48432159423828,3103
68930,0.015185859054327011,3.69452166557312,89.58075714111328,3109
69000,0.1730903834104538,2.179567575454712,89.57813262939453,3103
69070,0.38865146040916443,1.0357708930969238,89.61177825927734,3103
69140,0.3363665044307709,0.2499658316373825,89.77567291259766,3103
69210,0.32392916083335876,-0.46873828768730164,89.9906234741211,3103
69280,0.1047913208603859,-0.6309616565704346,90.1472396850586,3098
69350,-0.07380525022745132,-0.6519811153411865,90.23599243164062,3098
69420,-0.19914649426937103,-0.7360157370567322,90.32949829101562,3098
69490,-0.2364855706691742,-0.49297651648521423,90.40592193603516,3087
69560,-0.5598812699317932,-0.20510733127593994,90.55708312988281,3061
69630,-0.5073820948600769,0.2957271635532379,90.698486328125,3029
69700,-0.551841139793396,0.518034815788269,90.7879638671875,3014
69770,-0.6185488700866699,0.8278726935386658,90.85346984863281,3019
69840,-0.7291693687438965,0.9253666996955872,90.88440704345703,3024
69910,-0.3215399384498596,0.6851392388343811,90.84232330322266,3019
69980,-0.26361873745918274,0.6299898028373718,90.68304443359375,3029
70050,-0.024456316605210304,0.44155648350715637,90.37557220458984,3045
70120,-0.07030674815177917,0.32043972611427307,89.86933135986328,3061
70190,-0.1084817573428154,0.36650434136390686,89.48612976074219,3066
70260,-0.22036579251289368,0.0340811051428318,88.99060821533203,3066
70330,-0.2089042365550995,-0.027072947472333908,88.65299224853516,3077
70400,-0.2171526998281479,-0.3032645881175995,88.55762481689453,3077
70470,-0.35605835914611816,0.030771538615226746,88.57722473144531,3077
70540,-0.1757373958826065,-0.14607323706150055,88.65946197509766,3082
70610,-0.02767985127866268,-0.3434106707572937,88.635498046875,3098
70680,0.04692576453089714,-0.18532304465770721,88.6162109375,3119
70750,0.1061994805932045,0.024849919602274895,88.59326934814453,3146
70820,0.21176999807357788,0.2368786334991455,88.4803466796875,3161
70890,0.1526014655828476,0.4438440501689911,88.32087707519531,3172
70960,0.10691758245229721,0.4630683362483978,88.25216674804688,3177
71030,0.25558409094810486,0.4859183728694916,88.25740814208984,3167
71100,0.3771844506263733,0.39600592851638794,88.32672119140625,3156
71170,0.2953312397003174,0.5712397694587708,88.40300750732422,3151
71240,0.18330328166484833,0.4417373239994049,88.52810668945312,3130
71310,0.3307451605796814,0.24987170100212097,88.68327331542969,3124
71380,0.34066590666770935,0.37124407291412354,88.86238861083984,3119
71450,0.33714717626571655,0.44743502140045166,88.97339630126953,3119
71520,0.234895721077919,0.46286171674728394,89.0541763305664,3109
71590,0.07882927358150482,0.4441837966442108,89.13092041015625,3103
71660,-0.160506010055542,0.5450713038444519,89.13933563232422,3103
71730,-0.2330889105796814,0.4207921326160431,89.15505981445312,3103
71800,-0.4877490699291229,0.6529634594917297,89.10893249511719,3109
71870,-0.5978174209594727,0.4303032159805298,89.06468963623047,3098
71940,-0.725017786026001,0.6495370864868164,88.98013305664062,3103
72010,-0.6860493421554565,0.4143461585044861,88.9107666015625,3103
72080,-0.8135345578193665,0.4328865110874176,88.83016204833984,3109
72150,-0.7342120409011841,0.29448461532592773,88.70858764648438,3109
72220,-0.7334483861923218,0.2641897201538086,88.61890411376953,3119
72290,-0.7055752873420715,0.45264604687690735,88.5556869506836,3103
72360,-0.6171037554740906,0.4190734028816223,88.4872055053711,3103
72430,-0.7658035755157471,0.4471914768218994,88.38273620605469,3103
72500,-0.8207072019577026,0.4953867197036743,88.35977935791016,3098
72570,-0.557641327381134,0.27415138483047485,88.40655517578125,3109
72640,-0.6436284780502319,0.40987423062324524,88.45886993408203,3109
72710,-0.2816951274871826,-0.03471744805574417,88.55003356933594,3093
72780,-1.0078940391540527,0.34527257084846497,88.59882354736328,3093
72850,-3.886837959289551,-0.0194876529276371,88.62885284423828,3109
72920,-6.140658378601074,0.06760063022375107,88.6392593383789,3103
72990,-7.6301116943359375,-0.1726430207490921,88.69886016845703,3098
73060,-8.043432235717773,0.02663339488208294,88.7590103149414,3103
73130,-7.177834510803223,-0.16830752789974213,88.83173370361328,3103
73200,-6.152745246887207,-0.004181268624961376,88.9742660522461,3114
73270,-4.617504596710205,-0.05128777027130127,89.16345977783203,3103
73340,-3.3609304428100586,0.1665804237127304,89.41300201416016,3093
73410,-1.7805662155151367,0.19888697564601898,89.64533233642578,3082
73480,0.24956712126731873,0.3958708643913269,89.84123992919922,3087
73550,4.052402019500732,0.033118631690740585,89.98709869384766,3109
73620,7.742910385131836,0.038291338831186295,89.94346618652344,3103
73690,8.473685264587402,0.15392060577869415,89.71053314208984,3098
73760,8.25681209564209,0.056321024894714355,89.46683502197266,3093
73830,7.154069900512695,0.0937102884054184,89.26545715332031,3087
73900,5.74501371383667,0.2496999055147171,89.11736297607422,3098
73970,4.131723403930664,0.08136574923992157,89.06143951416016,3098
74040,2.4296109676361084,0.29293888807296753,89.00560760498047,3087
74110,0.9612047076225281,0.35236507654190063,89.02900695800781,3066
74180,-0.10764994472265244,0.4265826940536499,89.05768585205078,3056
74250,-1.0275770425796509,0.4969240427017212,89.14990234375,3035
74320,-1.5278918743133545,0.431596577167511,89.24972534179688,3024
74390,-1.5629421472549438,0.3693903088569641,89.31314086914062,3014
74460,-1.5486273765563965,0.3661603331565857,89.30787658691406,3024
74530,-1.4554718732833862,0.10122989118099213,89.24459838867188,3066
74600,-1.2367486953735352,0.1381293535232544,89.11006164550781,3109
74670,-0.9598832726478577,-0.11091446876525879,88.92633819580078,3135
74740,-0.639793872833252,-0.1596742570400238,88.72392272949219,3135
74810,-0.46194595098495483,-0.31754031777381897,88.5405044555664,3151
74880,-0.25643298029899597,-0.2290436029434204,88.3634262084961,3146
74950,-0.081291563808918,-0.15742014348506927,88.2144775390625,3140
75020,-0.10090659558773041,0.013036570511758327,88.0992202758789,3119
75090,0.14801879227161407,0.04378855228424072,88.0285873413086,3124
75160,0.1986275017261505,-0.021443476900458336,88.0301742553711,3130
75230,0.2047738879919052,-2.6384174823760986,88.0610580444336,3130
75300,0.20861662924289703,-5.444662570953369,88.08684539794922,3119
75370,0.26204562187194824,-7.312423229217529,88.06192016601562,3103
75440,0.13847805559635162,-7.504623889923096,87.99147033691406,3103
75510,0.3355920910835266,-7.411508083343506,87.93727111816406,3093
75580,0.3490564823150635,-6.34833288192749,87.78363037109375,3093
75650,0.4739026129245758,-5.079641819000244,87.62225341796875,3103
75720,0.37359514832496643,-3.5632500648498535,87.47601318359375,3119
75790,0.3450152277946472,-2.2518954277038574,87.46308898925781,3119
75860,0.18256990611553192,-1.041826605796814,87.53665161132812,3119
75930,0.12096486985683441,-0.09955461323261261,87.65798950195312,3098
76000,0.04966023191809654,0.7303256988525391,87.80260467529297,3066
76070,-0.11160150170326233,1.4493149518966675,87.9769515991211,3014
76140,-0.18821892142295837,1.7174795866012573,88.17863464355469,2982
76210,-0.913631796836853,3.2071621417999268,88.68427276611328,2977
76280,-2.424283027648926,6.627888202667236,89.84121704101562,3019
76350,-4.414168357849121,7.181046962738037,91.48062896728516,2982
76420,-5.4900994300842285,4.742547988891602,93.02261352539062,3109
76490,-1.2533090114593506,-2.4817798137664795,92.36100006103516,3251
76560,0.9533650279045105,-5.4030632972717285,91.67322540283203,3235
76630,2.593106269836426,-6.5134172439575195,90.86791229248047,3035
76700,3.7901835441589355,-5.101213455200195,90.22734069824219,2956
76770,4.3095574378967285,0.5405939817428589,90.2372055053711,2987
76840,0.9768888354301453,7.813058853149414,90.54287719726562,2998
76910,-5.129343032836914,12.15384292602539,92.34801483154297,3029
76980,-7.918329238891602,8.245880126953125,91.9367904663086,3172
77050,-4.50288200378418,4.718365669250488,91.80916595458984,3409
77120,-4.1569108963012695,6.279735565185547,91.67498779296875,3330
77190,-1.046143889427185,7.871372699737549,90.97441101074219,3124
77260,2.4321060180664062,7.478649616241455,90.43561553955078,2929
77330,2.895994186401367,7.929959297180176,90.82792663574219,2977
77400,1.785772442817688,5.624358654022217,91.74919891357422,2998
77470,-0.023877091705799103,-4.201210975646973,93.47856140136719,2992
77540,3.944605588912964,-12.637916564941406,95.16580200195312,3140
77610,3.114915370941162,-11.658541679382324,94.45118713378906,3409
77680,0.2727361023426056,-6.356291770935059,92.4439697265625,3404
77750,3.0754523277282715,-2.4889090061187744,90.21387481689453,3399
77820,2.0651063919067383,0.40549081563949585,88.54610443115234,3056
77890,1.519957184791565,7.2630510330200195,87.5072250366211,2908
77960,2.0025532245635986,14.54501724243164,86.38282775878906,2966
78030,-2.116131067276001,16.137619018554688,86.73543548583984,2966
78100,-6.006582260131836,12.479203224182129,88.0633773803711,2977
78170,-4.648792266845703,0.6520214676856995,88.63513946533203,2992
78240,0.365908145904541,-9.368827819824219,89.64730072021484,3230
78310,-2.4752581119537354,-6.566267013549805,89.64849853515625,3351
78380,-1.1620515584945679,-6.802131652832031,88.86776733398438,3288
78450,-1.0078641176223755,-6.668980121612549,88.19129180908203,3151
78520,0.11844974756240845,-6.02588415145874,87.64456939697266,2982
78590,2.1559348106384277,-8.456735610961914,87.95654296875,2966
78660,4.491254806518555,-11.16129207611084,89.26797485351562,2982
78730,6.603555679321289,-12.738826751708984,91.58145141601562,2992
78800,6.324185371398926,-9.90672779083252,93.75463104248047,2971
78870,4.4979023933410645,-6.179830551147461,96.08209228515625,2998
78940,2.7869739532470703,-3.8782413005828857,97.77726745605469,3045
79010,-0.014145871624350548,-1.2614774703979492,97.96000671386719,3051
79080,-4.8530402183532715,3.2886083126068115,96.46737670898438,3061
79150,-6.465036392211914,4.6655778884887695,94.19202423095703,3130
79220,-6.586234092712402,4.348930358886719,92.15235900878906,3177
79290,-5.5815606117248535,2.729992628097534,90.60323333740234,3182
79360,-3.8991284370422363,0.5934472680091858,89.60169982910156,3177
79430,-2.494818687438965,-1.6088353395462036,89.00965118408203,3161
79500,-0.7641196250915527,-3.7001404762268066,88.66069793701172,3135
79570,0.4018039405345917,-5.2578535079956055,88.33148193359375,3124
79640,1.3985298871994019,-6.009547710418701,88.1445083618164,3114
79710,2.083408832550049,-6.392446041107178,88.12054443359375,3114
79780,2.1872644424438477,-6.067354202270508,88.1551284790039,3114
79850,2.046506643295288,-5.764892578125,88.28807830810547,3135
79920,2.01031494140625,-5.199089527130127,88.6246109008789,3124
79990,1.7858071327209473,-4.471575736999512,89.25553894042969,3093
80060,1.5895098447799683,-3.477156639099121,90.12146759033203,3072
80130,2.2229223251342773,-3.836550712585449,90.841796875,3051
80200,2.2224578857421875,-3.4226715564727783,91.27371978759766,3040
80270,2.2514660358428955,-2.2696375846862793,92.05903625488281,3029
80340,1.1776700019836426,-1.109691858291626,93.48348236083984,3019
80410,-0.2906548082828522,-0.6585718989372253,95.28244018554688,3029
80480,-2.1976592540740967,-1.096602201461792,96.97681427001953,3045
80550,-2.091052770614624,-0.2724916934967041,98.59308624267578,3056
80620,-2.8425190448760986,-1.2082223892211914,100.05530548095703,3066
80690,-3.3636176586151123,-1.1587023735046387,101.50263214111328,3093
80760,-2.3901820182800293,-3.39555287361145,102.11431884765625,3109
80830,-3.5432796478271484,-4.267962455749512,102.44775390625,3531
80900,-9.166716575622559,-6.2375664710998535,102.96438598632812,3536
80970,-0.3407396972179413,0.15607088804244995,104.35474395751953,3541
81040,-0.16070657968521118,-0.39754366874694824,103.2918930053711,3541
81110,-0.16538503766059875,-0.44844889640808105,102.29313659667969,3547
81180,-0.17199665307998657,-0.46770304441452026,101.69536590576172,3547
81250,-0.18270659446716309,-0.4667697548866272,101.09093475341797,3552
81320,-0.17817071080207825,-0.45555007457733154,100.47811126708984,3547
81390,-0.18873262405395508,-0.4469645619392395,99.8689956665039,3552
81460,-0.1960684359073639,-0.4421960413455963,99.25675201416016,3557
81530,-0.17713303864002228,-0.43019405007362366,98.6479721069336,3557
81600,-0.19026340544223785,-0.41813844442367554,98.02851867675781,3557
81670,-0.20620878040790558,-0.4195753335952759,97.43421936035156,3557
81740,-0.2079043686389923,-0.4114544093608856,96.82384490966797,3563
81810,-0.20883069932460785,-0.41172683238983154,96.23323822021484,3563
81880,-0.20955106616020203,-0.4070013761520386,95.63440704345703,3563
81950,-0.21210749447345734,-0.3991839587688446,95.04818725585938,3568
82020,-0.209718719124794,-0.3955249786376953,94.4563980102539,3563
82090,-0.2153012901544571,-0.38511770963668823,93.86640167236328,3568
82160,-0.2144542932510376,-0.3847675025463104,93.28559112548828,3568
82230,-0.21619872748851776,-0.38187652826309204,92.70405578613281,3573
82300,-0.21896442770957947,-0.37467196583747864,92.12599182128906,3573
82370,-0.21895693242549896,-0.36521053314208984,91.5505599975586,3573
82440,-0.22122851014137268,-0.3554191589355469,90.97651672363281,3568
82510,-0.22187206149101257,-0.35103675723075867,90.40443420410156,3573
82580,-0.22436650097370148,-0.3469763398170471,89.83638763427734,3578
82650,-0.2249840945005417,-0.343085914850235,89.27059173583984,3573
82720,-0.22978606820106506,-0.3451586961746216,88.70741271972656,3578
82790,-0.23537985980510712,-0.3441167175769806,88.14778137207031,3578
82860,-0.23370665311813354,-0.34097161889076233,87.59200286865234,3578
82930,-0.23783725500106812,-0.3321923315525055,87.04010772705078,3584
