timeStamp,stateEstimate.roll,stateEstimate.pitch,stateEstimate.yaw,pm.vbatMV
74358,0.06588047742843628,0.022284867241978645,-0.03264463692903519,4017
74428,0.06789407134056091,0.016726089641451836,-0.0335661880671978,4017
74498,0.06815411150455475,0.010468775406479836,-0.033367473632097244,4022
74568,0.07069545984268188,0.003314643632620573,-0.030921582132577896,4017
74638,0.07250004261732101,0.0039346772246062756,-0.03230678290128708,4017
74708,0.08021087199449539,-0.005544010084122419,-0.03277280554175377,4017
74778,0.0805659294128418,-0.003705573733896017,-0.03521135821938515,4017
74848,0.08162333071231842,-0.002845986047759652,-0.03634051978588104,4017
74918,0.08333315700292587,-0.0011207627831026912,-0.03815789520740509,4017
74988,0.08558540046215057,-0.0012255054898560047,-0.039238911122083664,4017
75058,0.08422061800956726,0.005936314817517996,-0.042717933654785156,4017
75128,0.08152590692043304,0.003451799275353551,-0.041592393070459366,4017
75198,0.0804666206240654,0.0019356785342097282,-0.04250674694776535,4017
75268,0.08416353166103363,0.003700915025547147,-0.04338303580880165,4017
75338,0.08386705815792084,0.006693416740745306,-0.04554152116179466,4017
75408,0.08811601996421814,0.010416688397526741,-0.04763262718915939,4017
75478,0.08997996896505356,0.013070008717477322,-0.04829363897442818,4017
75548,0.08935529738664627,0.0076560331508517265,-0.049577634781599045,4017
75618,0.0925128161907196,0.009307430125772953,-0.05151798576116562,4017
75688,0.0947023406624794,0.01508980430662632,-0.05365104600787163,4017
75758,0.09399133175611496,0.015558556653559208,-0.05502929911017418,4017
75828,0.0969170406460762,0.013612276874482632,-0.055724360048770905,4017
75898,0.09529608488082886,0.010547850281000137,-0.0560339093208313,4011
75968,0.09784840792417526,0.008212963119149208,-0.055630382150411606,4017
76038,0.0998983234167099,0.011562678962945938,-0.05919824540615082,4017
76108,0.0999341607093811,0.01556597650051117,-0.05919487029314041,4017
76178,0.10385259240865707,0.019057661294937134,-0.062020495533943176,4017
76248,0.10496634244918823,0.02017517387866974,-0.06133086606860161,4017
76318,0.10398580878973007,0.023967456072568893,-0.06508055329322815,4017
76388,0.10128465294837952,0.0297672301530838,-0.06712180376052856,4017
76458,0.0011991820065304637,-0.0009084264747798443,-0.0003779164981096983,4017
76528,0.0018385599832981825,-0.006637802813202143,-0.0022515475284308195,4017
76598,0.0026898595970124006,0.0006804393487982452,-0.004591630306094885,4017
76668,0.0009962506592273712,-0.0015602289931848645,-0.006893672049045563,4017
76738,0.0005880773533135653,0.003013692330569029,-0.006993028800934553,4017
76808,0.003605774836614728,0.009134678170084953,-0.0064240191131830215,4017
76878,0.004844344686716795,0.008246664889156818,-0.009011834859848022,4017
76948,0.006148010026663542,0.012462861835956573,-0.007934745401144028,4017
77018,0.007417351473122835,0.011699777096509933,-0.008619111031293869,4017
77088,0.00920211523771286,0.010798724368214607,-0.008972526527941227,4017
77158,0.009440024383366108,0.013958998024463654,-0.01369386725127697,4017
77228,0.011301597580313683,0.022454027086496353,-0.014645632356405258,4011
77298,0.009750301949679852,0.02171548642218113,-0.015204892493784428,4017
77368,0.011195187456905842,0.02739170379936695,-0.015508502721786499,4017
77438,0.012612626887857914,0.028302447870373726,-0.017155904322862625,4017
77508,0.013760398142039776,0.03038429468870163,-0.026845568791031837,3140
77578,0.2470584213733673,0.20819342136383057,0.16967403888702393,3383
77648,0.538006067276001,1.3681880235671997,1.0046955347061157,3541
77718,-0.8803812861442566,2.786386728286743,2.070690393447876,3584
77788,0.3298904299736023,0.8378457427024841,2.580458402633667,3578
77858,0.2801849842071533,-0.901262104511261,2.6731317043304443,3584
77928,-0.031033780425786972,-1.1792744398117065,2.557861804962158,3594
77998,-0.09913844615221024,-1.3212634325027466,2.344919204711914,3615
78068,0.32775330543518066,-1.3633989095687866,2.3584299087524414,3621
78138,0.7654916644096375,-0.9474435448646545,2.3642187118530273,3615
78208,0.4049990773200989,-0.4472833573818207,2.273953676223755,3605
78278,0.7970218658447266,-0.11273897439241409,2.242948293685913,3594
78348,0.6446857452392578,0.5051512122154236,2.207502603530884,3584
78418,0.26175400614738464,0.6204026341438293,2.144487142562866,3573
78488,-0.185499370098114,0.8726882934570312,2.1143958568573,3573
78558,-0.5852418541908264,0.8008834719657898,2.0835838317871094,3568
78628,-0.8186695575714111,0.822705090045929,2.0571444034576416,3568
78698,-0.9332138299942017,0.6572681069374084,2.14278507232666,3573
78768,-0.8514236211776733,0.5059829354286194,2.8246381282806396,3573
78838,-0.6636852025985718,0.27881234884262085,4.107936859130859,3578
78908,-0.7409623265266418,0.200503870844841,5.992858409881592,3568
78978,-0.6177621483802795,0.30551937222480774,8.393936157226562,3563
79048,-0.39483925700187683,0.245058074593544,11.187612533569336,3557
79118,-0.2119131088256836,0.1114405170083046,14.281715393066406,3557
79188,-0.21302270889282227,-0.0326952263712883,17.583650588989258,3557
79258,0.12006494402885437,-0.09883007407188416,20.990694046020508,3557
79328,-0.29251745343208313,-0.2846800684928894,24.454620361328125,3568
79398,-0.26766151189804077,-0.14450843632221222,27.941370010375977,3563
79468,-0.11746203899383545,-0.02762485109269619,31.411115646362305,3568
79538,-0.18898136913776398,0.11729519069194794,34.87865447998047,3568
79608,0.15149620175361633,0.2451619654893875,38.348270416259766,3563
79678,0.366424024105072,0.38788896799087524,41.79221725463867,3563
79748,0.25262218713760376,0.023600002750754356,45.3865966796875,3563
79818,-0.0860486626625061,-0.07734057307243347,48.911041259765625,3557
79888,-0.10210736095905304,0.06336069852113724,52.455257415771484,3547
79958,-0.20853552222251892,0.040890514850616455,56.111000061035156,3552
80028,-0.3219697177410126,0.048394329845905304,59.807865142822266,3552
80098,-0.34182435274124146,0.10916601866483688,63.45521926879883,3552
80168,-0.5735499262809753,0.5388978123664856,67.0999755859375,3547
80238,-0.48596692085266113,0.44918373227119446,70.8124008178711,3547
80308,-0.6110621690750122,0.6371968984603882,74.49691009521484,3541
80378,-0.13008815050125122,0.845514178276062,77.94599151611328,3541
80448,0.09183736890554428,0.6932677030563354,81.26685333251953,3547
80518,0.2947036921977997,0.8425931930541992,84.806396484375,3547
80588,0.10536070168018341,0.9627246260643005,88.46791076660156,3541
80658,-0.03930841386318207,1.0410560369491577,91.91773986816406,3547
80728,-0.052394453436136246,0.5733597874641418,94.6083755493164,3547
80798,-0.20514869689941406,1.1491506099700928,96.36316680908203,3541
80868,-0.5140959024429321,1.1695973873138428,97.587158203125,3541
80938,-0.41460442543029785,0.9503001570701599,98.3938217163086,3541
81008,-0.5528720617294312,1.101014256477356,98.6638412475586,3536
81078,-0.4501124322414398,0.8143783807754517,98.24330139160156,3536
81148,-0.01471192017197609,0.8087323307991028,97.56969451904297,3536
81218,0.304987370967865,0.7095420360565186,97.016357421875,3536
81288,0.22672942280769348,0.5548869967460632,96.50531005859375,3531
81358,0.1823100447654724,-0.08253233134746552,95.5482177734375,3531
81428,-0.056037209928035736,-0.07547230273485184,94.32234954833984,3536
81498,0.20149429142475128,-0.312368243932724,92.7630615234375,3541
81568,-0.057626135647296906,-0.1341526061296463,91.93999481201172,3541
81638,-0.1728702187538147,-0.04001506045460701,91.14828491210938,3531
81708,-0.14717192947864532,-0.16177058219909668,90.77877044677734,3531
81778,-0.12642768025398254,0.04626059904694557,90.64250183105469,3531
81848,-0.2668267786502838,0.20563112199306488,90.6412582397461,3526
81918,-0.3289165794849396,0.6180496215820312,90.67375183105469,3531
81988,-0.039708446711301804,0.4856869876384735,90.58995819091797,3531
82058,-0.0751015841960907,0.4002797305583954,90.56477355957031,3536
82128,0.12612172961235046,-0.2989095151424408,90.5938720703125,3531
82198,0.28834304213523865,-0.6591949462890625,90.46868133544922,3520
82268,-0.018806762993335724,-0.4645608365535736,90.40388488769531,3526
82338,0.0441209077835083,-0.49992483854293823,90.29556274414062,3531
82408,-0.04236944764852524,-0.2486027330160141,90.06040954589844,3531
82478,0.3224303722381592,-0.2636765241622925,89.7794418334961,3526
82548,0.20290888845920563,-0.0015960447490215302,89.48370361328125,3526
82618,0.27527764439582825,-0.1788530796766281,89.20905303955078,3526
82688,0.2824212610721588,-2.252939462661743,88.93851470947266,3520
82758,0.5417841672897339,-4.030656814575195,88.72223663330078,3515
82828,0.35463443398475647,-5.71075963973999,88.79727935791016,3515
82898,-0.12820492684841156,-6.451478481292725,89.11573028564453,3520
82968,1.236106514930725,-6.851710319519043,89.56828308105469,3520
83038,0.7481722235679626,-6.321983337402344,89.78617095947266,3520
83108,-0.0967739000916481,-4.525228023529053,89.8135986328125,3520
83178,-0.18394255638122559,-3.1908910274505615,89.64550018310547,3515
83248,-0.43082743883132935,-2.0779247283935547,89.40938568115234,3515
83318,-0.21521645784378052,-1.062097191810608,89.032470703125,3515
83388,-0.19312311708927155,-0.47569864988327026,88.72927856445312,3515
83458,-0.0574101097881794,-0.2248021364212036,88.51287078857422,3520
83528,0.11187247931957245,-0.007615493144840002,88.3288803100586,3526
83598,0.15369164943695068,0.003370023565366864,88.1332778930664,3520
83668,0.3859326243400574,0.031934209167957306,87.92167663574219,3520
83738,0.6992367506027222,-0.3356345593929291,87.80255126953125,3515
83808,0.7834473252296448,-0.17951257526874542,87.86182403564453,3515
83878,0.7614560723304749,-0.43975579738616943,88.0625,3515
83948,0.5903707146644592,-0.6143567562103271,88.25138092041016,3515
84018,0.4072597026824951,-0.8046431541442871,88.39140319824219,3515
84088,0.24781760573387146,-0.9504960179328918,88.45800018310547,3515
84158,0.13629814982414246,-0.678289532661438,88.4434585571289,3515
84228,0.06001802161335945,-0.6455884575843811,88.28811645507812,3510
84298,0.2502959668636322,-0.6897553205490112,88.0281753540039,3515
84368,0.4589819610118866,-0.5239845514297485,87.70795440673828,3510
84438,0.48615652322769165,-0.28632357716560364,87.41447448730469,3515
84508,0.5574174523353577,-0.4880967140197754,87.22460174560547,3515
84578,0.6007309556007385,-0.37232473492622375,87.05671691894531,3510
84648,0.44100871682167053,-0.1411469280719757,86.9483413696289,3510
84718,0.35901808738708496,-0.19655488431453705,86.94999694824219,3510
84788,0.39741694927215576,-0.13646192848682404,87.01957702636719,3499
84858,0.38922902941703796,-0.018456319347023964,87.08100891113281,3510
84928,0.33018696308135986,-0.2971028685569763,87.1064224243164,3515
84998,0.18889419734477997,-0.24354110658168793,87.15412139892578,3515
85068,-0.0816989466547966,-0.3850354850292206,87.26620483398438,3515
85138,-0.19081047177314758,-0.3475469648838043,87.2332992553711,3510
85208,-0.16242766380310059,-0.16533918678760529,87.10289001464844,3510
85278,-0.11299686878919601,-0.37909361720085144,86.9366683959961,3504
85348,0.3263780176639557,-0.4291456639766693,86.79188537597656,3504
85418,0.29643651843070984,-0.326655775308609,86.68238830566406,3504
85488,0.2735455632209778,-0.11131719499826431,86.7232666015625,3504
85558,0.04722951352596283,-0.3367992341518402,86.81671142578125,3504
85628,-0.17853853106498718,-0.11808174103498459,86.91061401367188,3504
85698,-0.5807362198829651,-0.0994718000292778,86.92586517333984,3504
85768,-0.44146403670310974,-0.23162978887557983,86.77693176269531,3504
85838,-0.3125423192977905,-0.2334720492362976,86.54713439941406,3504
85908,-0.12852692604064941,-0.05146728828549385,86.59324645996094,3499
85978,-0.19076897203922272,-0.12267798185348511,86.83849334716797,3504
86048,0.21628519892692566,-0.41535961627960205,87.04484558105469,3504
86118,-0.014907781034708023,-0.3122378885746002,87.30004119873047,3504
86188,0.16256140172481537,-0.5619675517082214,87.5096664428711,3499
86258,0.20073716342449188,-0.7010697722434998,87.70478820800781,3499
86328,0.1647515445947647,-0.8019297122955322,87.79605865478516,3499
86398,0.216335266828537,-1.270887851715088,88.1498794555664,3504
86468,-0.6729820370674133,-0.7444467544555664,88.59785461425781,3504
86538,-0.8464475870132446,-0.5088346600532532,88.91427612304688,3504
86608,-0.8204013109207153,0.2619410455226898,88.82159423828125,3504
86678,-1.1992696523666382,0.2578793466091156,88.43792724609375,3499
86748,-0.020756352692842484,0.1790981888771057,87.8014144897461,3499
86818,0.014970513060688972,0.08619309961795807,87.2581558227539,3504
86888,0.5746893882751465,-0.1420263946056366,86.88783264160156,3499
86958,1.594721794128418,-0.19181324541568756,86.43902587890625,3499
87028,1.5641350746154785,-0.2918086051940918,86.29194641113281,3494
87098,1.739555835723877,-0.2003830373287201,86.40035247802734,3499
87168,1.1180620193481445,-0.0699399933218956,86.52523040771484,3499
87238,0.9913626313209534,0.36702418327331543,86.75199890136719,3504
87308,0.08037356287240982,0.05289866030216217,87.17242431640625,3499
87378,-0.522879421710968,0.39738303422927856,87.45286560058594,3499
87448,-0.9242700338363647,0.553905189037323,87.55972290039062,3499
87518,-0.9568490386009216,0.3223990201950073,87.5274658203125,3494
87588,-0.921638548374176,0.3811067044734955,87.4647216796875,3494
87658,-0.8691856265068054,0.29594355821609497,87.38301086425781,3494
87728,-0.4135434925556183,-0.027306046336889267,87.26274871826172,3494
87798,-0.35731980204582214,-0.1529594212770462,87.15752410888672,3494
87868,-0.27539336681365967,-0.35609161853790283,86.93562316894531,3499
87938,0.004170519765466452,-0.3405974805355072,86.70003509521484,3494
88008,0.25469326972961426,-0.5555944442749023,86.47110748291016,3494
88078,0.48399490118026733,-0.5251487493515015,86.1790771484375,3499
88148,0.38767945766448975,-0.3760116398334503,85.68453979492188,3494
88218,0.6966345906257629,0.14413291215896606,85.36346435546875,3489
88288,0.47608092427253723,0.08249736577272415,85.30000305175781,3489
88358,0.4644102156162262,0.23345254361629486,85.23594665527344,3489
88428,0.172101229429245,0.44488099217414856,85.15406036376953,3489
88498,0.2847866415977478,0.43266111612319946,85.20558166503906,3494
88568,0.3030144274234772,0.42804861068725586,85.30641174316406,3494
88638,0.3009137213230133,0.5724966526031494,85.46704864501953,3494
88708,0.4102597236633301,1.1939014196395874,85.69338989257812,3494
88778,0.2996973693370819,1.8245092630386353,86.07935333251953,3483
88848,0.21006575226783752,3.2205753326416016,86.49794006347656,3494
88918,-0.09759398549795151,4.774030685424805,87.02600860595703,3494
88988,-0.4207857847213745,6.956810474395752,87.51295471191406,3494
89058,-0.8302314877510071,7.072795867919922,87.89739990234375,3489
89128,-0.824270486831665,6.6409149169921875,88.1126937866211,3489
89198,-0.649588406085968,5.644179821014404,88.1679916381836,3483
89268,-0.2685532867908478,4.492980480194092,88.19776153564453,3483
89338,-0.39026355743408203,3.0003180503845215,88.0638656616211,3478
89408,-0.08289748430252075,1.7114406824111938,87.90526580810547,3478
89478,-0.2746867537498474,0.7854233980178833,87.70746612548828,3483
89548,-0.09382933378219604,0.17816413938999176,87.47676086425781,3483
89618,-0.15023303031921387,-0.5604926347732544,87.16069793701172,3489
89688,0.10785806179046631,-0.4498220384120941,86.71513366699219,3489
89758,0.03984035551548004,-0.5961776375770569,86.26311492919922,3489
89828,-0.23694194853305817,-0.44660627841949463,85.73271942138672,3489
89898,-0.23959504067897797,-0.4205559492111206,85.171142578125,3489
89968,-0.2403676062822342,-0.20426255464553833,84.60576629638672,3494
90038,-0.3235083520412445,0.24036531150341034,84.48336029052734,3489
90108,-0.7370405793190002,0.3577018082141876,84.78601837158203,3483
90178,-1.0537045001983643,0.6706967353820801,85.38844299316406,3494
90248,-0.44715142250061035,0.8104169368743896,86.1737289428711,3494
90318,-0.24026763439178467,1.1097968816757202,87.14371490478516,3494
90388,0.32691091299057007,1.3525561094284058,87.93880462646484,3494
90458,0.46153804659843445,1.208892822265625,88.44056701660156,3499
90528,0.6335552930831909,1.0504096746444702,88.85396575927734,3494
90598,0.6033818125724792,0.7894893884658813,89.28394317626953,3494
90668,1.0871323347091675,0.48281532526016235,89.63943481445312,3489
90738,0.999276876449585,0.4846487045288086,89.97399139404297,3483
90808,1.053212285041809,0.4455963373184204,89.8883285522461,3489
90878,0.9026607871055603,0.7493243217468262,89.38426208496094,3489
90948,0.8163025975227356,0.724077582359314,88.88459014892578,3483
91018,0.7422419190406799,0.7795826196670532,88.27598571777344,3483
91088,0.9333550930023193,0.7112001180648804,87.76217651367188,3478
91158,0.9840640425682068,0.677956759929657,87.41267395019531,3483
91228,0.9028562903404236,0.8279592394828796,87.1142807006836,3483
91298,0.5148380398750305,0.5381059646606445,86.900634765625,3483
91368,0.28260937333106995,0.5607606768608093,86.90135192871094,3489
91438,0.06692494451999664,0.4269287586212158,87.037353515625,3489
91508,-0.06180534511804581,0.181631401181221,87.27098846435547,3489
91578,-0.18240918219089508,0.3659363389015198,87.56204986572266,3483
91648,-0.03927646949887276,0.003184202592819929,87.73023986816406,3483
91718,0.015879299491643906,0.1243302971124649,87.77143859863281,3478
91788,-0.07567328214645386,0.06764227151870728,87.90614318847656,3478
91858,-0.09585412591695786,0.2249997854232788,88.10047912597656,3478
91928,-0.2346964329481125,0.027311844751238823,88.37179565429688,3483
91998,-0.1044473797082901,0.2117326706647873,88.68366241455078,3483
92068,-0.3538038730621338,0.35752323269844055,88.97769165039062,3483
92138,-0.37968748807907104,0.33499380946159363,89.29367065429688,3483
92208,-0.39907386898994446,0.20410512387752533,89.62784576416016,3478
92278,-0.3219633102416992,0.2322196662425995,89.8789291381836,3478
92348,-0.03263538330793381,-0.10229210555553436,90.01779174804688,3483
92418,-0.5201862454414368,0.25720322132110596,90.0486831665039,3483
92488,-0.25732675194740295,-0.04491294547915459,90.14833068847656,3478
92558,-0.280392050743103,0.03942469134926796,90.28522491455078,3483
92628,-0.4646933376789093,0.22995516657829285,90.34907531738281,3483
92698,-0.23622499406337738,0.09496363997459412,90.1742935180664,3478
92768,-0.1675603836774826,0.12358799576759338,89.96003723144531,3483
92838,-0.14148905873298645,0.12003718316555023,89.659912109375,3483
92908,-0.12638993561267853,0.07919406145811081,89.23184204101562,3478
92978,0.036634452641010284,0.1344669610261917,88.87574005126953,3483
93048,0.3261740207672119,-0.05287213623523712,88.73151397705078,3483
93118,0.4110301434993744,-0.19298702478408813,88.62798309326172,3483
93188,0.5664571523666382,-0.17442187666893005,88.47819519042969,3483
93258,0.4108925461769104,0.1287887543439865,88.38507080078125,3483
93328,0.175735205411911,-0.08700411766767502,88.34542846679688,3489
93398,0.1275387555360794,-0.19882723689079285,88.55792236328125,3483
93468,0.3447313606739044,-0.527453601360321,89.51570129394531,3478
93538,0.3036222457885742,-0.38069647550582886,91.20138549804688,3483
93608,0.027711864560842514,-0.19605037569999695,93.3550796508789,3489
93678,-0.16322532296180725,0.08228809386491776,95.65826416015625,3478
93748,-0.12889380753040314,-0.02531086653470993,97.68717193603516,3478
93818,-0.11656481772661209,-0.03658020496368408,99.27721405029297,3473
93888,-0.36291831731796265,0.24840539693832397,100.38359069824219,3478
93958,-0.15274186432361603,0.17319954931735992,101.09638214111328,3473
94028,-0.25727447867393494,0.14027826488018036,101.4003677368164,3473
94098,-0.6455479860305786,0.35015931725502014,101.48563385009766,3473
94168,-0.582352876663208,0.4683731496334076,101.89840698242188,3478
94238,-0.4927646517753601,0.09466328471899033,102.85394287109375,3478
94308,-0.127681165933609,-0.09393468499183655,104.41915130615234,3473
94378,0.030431807041168213,-0.00103483977727592,106.32362365722656,3473
94448,0.1327364295721054,0.14517579972743988,108.65470886230469,3473
94518,0.21428711712360382,-0.25970062613487244,111.3924789428711,3478
94588,0.5010172128677368,0.09314755350351334,114.42862701416016,3478
94658,0.5800485014915466,0.2688642740249634,117.36070251464844,3473
94728,0.419847697019577,0.2653004229068756,119.81452941894531,3478
94798,0.2597511112689972,-0.21989914774894714,121.29100799560547,3478
94868,0.23373845219612122,0.0245280172675848,122.17251586914062,3478
94938,-0.19368113577365875,0.04111644998192787,122.65447998046875,3473
95008,0.11233212798833847,-0.1337464153766632,122.83824157714844,3478
95078,-0.12592054903507233,0.05613626912236214,122.73577117919922,3478
95148,-0.08553759008646011,-0.040812939405441284,122.34969329833984,3478
95218,-0.11724236607551575,0.02448270097374916,121.8628921508789,3478
95288,-0.03238460049033165,0.067167729139328,121.63172912597656,3483
95358,-0.17937061190605164,-0.056241653859615326,121.69898223876953,3483
95428,0.09061360359191895,-0.06918439269065857,121.93545532226562,3478
95498,-0.23778824508190155,-0.07281806319952011,122.4579086303711,3478
95568,-0.3306688964366913,-0.01054199505597353,123.50888061523438,3473
95638,-0.3886154890060425,0.3527478873729706,125.1226806640625,3473
95708,-0.2474178820848465,0.49146878719329834,127.20108032226562,3478
95778,-0.1905616670846939,0.36933454871177673,129.47616577148438,3478
95848,0.01576058194041252,-0.004911236930638552,131.53350830078125,3478
95918,0.5512063503265381,-0.3852366507053375,133.40997314453125,3473
95988,-0.43399810791015625,0.350395143032074,134.99595642089844,3468
96058,-0.5353231430053711,0.3297238051891327,136.11639404296875,3468
96128,-0.44084933400154114,0.4113740622997284,136.78616333007812,3468
96198,-0.45913392305374146,0.26384004950523376,137.1810760498047,3473
96268,-0.17481878399848938,-0.08803225308656693,137.27178955078125,3468
96338,-0.23122425377368927,-0.06588315218687057,137.24362182617188,3468
96408,0.07790178805589676,-0.2518588900566101,137.1109619140625,3468
96478,0.1373101770877838,-0.2831992506980896,136.82684326171875,3473
96548,0.29029667377471924,-0.4910889267921448,136.49307250976562,3478
96618,0.4203506410121918,-0.3629397749900818,136.0930633544922,3473
96688,0.31357336044311523,-0.04901321977376938,135.7423095703125,3473
96758,0.4567219614982605,0.05147077515721321,135.46145629882812,3473
96828,0.2196764200925827,-2.683969497680664,135.2871551513672,3473
96898,0.5874830484390259,-5.464423179626465,135.2884063720703,3468
96968,0.21803370118141174,-6.729551315307617,135.31549072265625,3468
97038,0.06346901506185532,-7.2011637687683105,135.31649780273438,3468
97108,-0.04912009462714195,-6.353993892669678,135.21600341796875,3462
97178,-0.3897506594657898,-5.237306594848633,134.95755004882812,3462
97248,-0.01899641565978527,-3.911574363708496,134.4010467529297,3457
97318,0.40698379278182983,-3.051943778991699,133.86155700683594,3462
97388,0.2926581799983978,-2.0858843326568604,133.43899536132812,3468
97458,0.29287534952163696,-1.021254301071167,133.08616638183594,3473
97528,0.43936118483543396,-0.3200027346611023,132.84071350097656,3478
97598,0.452312171459198,0.5300804972648621,132.6477508544922,3473
97668,0.4808231592178345,1.7351946830749512,132.53900146484375,3473
97738,0.45133301615715027,2.8501999378204346,132.4816131591797,3468
97808,0.3845849633216858,4.495049476623535,132.45094299316406,3473
97878,0.32808980345726013,7.104031085968018,132.42596435546875,3473
97948,0.15607614815235138,6.953045845031738,132.38282775878906,3473
98018,0.07700372487306595,6.2297682762146,132.3918914794922,3473
98088,0.09187352657318115,2.533355474472046,132.4285888671875,3468
98158,0.2498062252998352,-1.1927396059036255,132.50003051757812,3462
98228,0.3096291422843933,-4.006287574768066,132.5969696044922,3468
98298,0.6591148972511292,-6.318580150604248,132.732421875,3462
98368,2.6260406970977783,-7.058681964874268,132.8459014892578,3468
98438,2.8389036655426025,-7.169912815093994,132.90965270996094,3468
98508,3.014146089553833,-5.865678787231445,132.91175842285156,3468
98578,2.3894736766815186,-4.76607608795166,132.93894958496094,3473
98648,-0.12775325775146484,-2.9514589309692383,132.9429473876953,3473
98718,-1.0173920392990112,-0.9524387717247009,132.96954345703125,3473
98788,-1.9985347986221313,0.9969472885131836,132.94515991210938,3473
98858,-2.1942527294158936,2.6423966884613037,132.92625427246094,3478
98928,-2.0535569190979004,4.738255977630615,132.9495391845703,3478
98998,-1.7493884563446045,7.127302646636963,132.9549102783203,3478
99068,-1.5107344388961792,7.256196975708008,132.9595184326172,3473
99138,-1.2512426376342773,6.80706262588501,133.0260467529297,3468
99208,-0.7983735203742981,5.4060258865356445,133.13278198242188,3462
99278,-0.4980728328227997,4.12578821182251,133.2471160888672,3462
99348,-0.22853270173072815,2.9570608139038086,133.36631774902344,3462
99418,0.11831872165203094,1.564302921295166,133.44931030273438,3462
99488,0.2591942548751831,0.8469159603118896,133.5167999267578,3462
99558,0.5612137913703918,0.20775911211967468,133.56085205078125,3462
99628,0.6455283164978027,-0.2523944079875946,133.57861328125,3468
99698,0.5172292590141296,-0.184726744890213,133.57711791992188,3462
99768,0.5820640921592712,-0.4262032210826874,133.5825958251953,3468
99838,0.38708725571632385,-0.025835363194346428,133.5701904296875,3473
99908,0.40768831968307495,-0.13967303931713104,133.55947875976562,3468
99978,0.24425160884857178,0.2859588861465454,133.55221557617188,3473
100048,0.06892555952072144,0.4796646237373352,133.58236694335938,3473
100118,0.06855650246143341,0.48912838101387024,133.6058349609375,3468
100188,0.08481945097446442,0.641173243522644,133.5999755859375,3468
100258,0.01361871138215065,0.8175774812698364,133.61737060546875,3473
100328,-0.07228946685791016,0.660281240940094,133.5928955078125,3468
100398,-0.033623527735471725,0.6245249509811401,133.56753540039062,3468
100468,-0.13579244911670685,0.6895796656608582,133.33290100097656,3473
100538,-0.0409364178776741,0.5189796686172485,132.4180145263672,3468
100608,0.08975975215435028,0.4147782623767853,130.79029846191406,3468
100678,0.18860311806201935,0.3490409851074219,128.76992797851562,3462
100748,0.04903733357787132,0.294415146112442,126.93995666503906,3462
100818,0.2595648169517517,0.21377688646316528,125.55192565917969,3462
100888,-0.057273995131254196,-0.0017098692478612065,124.52505493164062,3462
100958,-0.31659814715385437,-0.06274290382862091,123.76971435546875,3468
101028,-0.3219376802444458,0.07889339327812195,123.3041000366211,3468
101098,-0.40898510813713074,0.11652025580406189,122.9999008178711,3462
101168,-0.21797746419906616,0.18185846507549286,122.79190826416016,3468
101238,-0.20847216248512268,0.13763830065727234,122.72909545898438,3468
101308,-0.10221678018569946,0.20882479846477509,122.70087432861328,3468
101378,0.0769113078713417,0.26002073287963867,122.70797729492188,3468
101448,0.12200652807950974,0.2968843877315521,122.72103118896484,3468
101518,0.21674518287181854,0.22507154941558838,122.75382232666016,3468
101588,0.3089153468608856,0.1160469725728035,122.75365447998047,3473
101658,0.21070720255374908,0.10848774760961533,122.76821899414062,3468
101728,0.12226629257202148,0.18371638655662537,122.74824523925781,3468
101798,0.07936865836381912,0.09266537427902222,122.72503662109375,3462
101868,0.004052165895700455,0.18896950781345367,122.70655822753906,3462
101938,-0.029153719544410706,0.05293286591768265,122.74540710449219,3468
102008,-0.06343909353017807,0.04333731159567833,122.79486846923828,3462
102078,-0.12070167064666748,-0.03430262953042984,122.5990219116211,3473
102148,-0.1619327962398529,-0.17099836468696594,121.67107391357422,3468
102218,-0.17097118496894836,-0.1645500361919403,120.01773071289062,3468
102288,-0.2798800468444824,-0.052843086421489716,118.05743408203125,3462
102358,-0.13659356534481049,-0.06469886004924774,116.40121459960938,3468
102428,-0.18732231855392456,-0.09918628633022308,115.22274780273438,3462
102498,-0.09720970690250397,-0.1342540681362152,114.43783569335938,3462
102568,-0.06531457602977753,0.05589589849114418,113.94717407226562,3468
102638,0.058122266083955765,0.05907416343688965,113.65364074707031,3462
102708,0.19184555113315582,0.027869736775755882,113.513916015625,3468
102778,0.049052681773900986,0.15014971792697906,113.49886322021484,3462
102848,0.1155860424041748,0.08860144019126892,113.56527709960938,3468
102918,0.11734972894191742,0.026806185021996498,113.6893310546875,3468
102988,0.0010980375809594989,0.07976354658603668,113.70965576171875,3468
103058,-0.20015306770801544,-0.026631956920027733,113.12617492675781,3462
103128,-0.2939009666442871,0.23488503694534302,111.81401062011719,3462
103198,-0.29663798213005066,0.20510481297969818,109.99842071533203,3462
103268,-0.1778525859117508,0.1590423434972763,108.1663589477539,3462
103338,0.0014627398923039436,0.14538894593715668,106.67623138427734,3468
103408,0.08837831020355225,-0.018888212740421295,105.55136108398438,3468
103478,0.22956861555576324,-0.022433407604694366,104.72628021240234,3468
103548,0.1560428887605667,-0.14621224999427795,104.13727569580078,3462
103618,-0.059034962207078934,-0.05188518390059471,103.74099731445312,3462
103688,-0.14900441467761993,-0.11119942367076874,103.48937225341797,3462
103758,-0.2120852768421173,-0.07432535290718079,103.31085968017578,3462
103828,-0.31288397312164307,-0.15834268927574158,103.14547729492188,3468
103898,-0.19447505474090576,-0.16387446224689484,102.99669647216797,3462
103968,-0.18865405023097992,-0.1564142405986786,102.85155487060547,3462
104038,-0.11802046000957489,-0.23519831895828247,102.71260833740234,3468
104108,-0.11964280158281326,-0.22028952836990356,102.59608459472656,3462
104178,0.01968233659863472,-0.4552612602710724,102.52021026611328,3462
104248,-0.03147497773170471,-0.407093346118927,102.5002670288086,3462
104318,-0.0987677052617073,-0.354480117559433,102.52046203613281,3462
104388,-0.10963216423988342,-0.2615138590335846,102.59601593017578,3462
104458,-0.16006581485271454,-0.07833515107631683,102.76963806152344,3452
104528,-0.19892026484012604,0.04397993162274361,103.01900482177734,3425
104598,-0.2618713080883026,0.2895939350128174,103.34823608398438,3409
104668,-0.39209097623825073,0.5005680322647095,103.67203521728516,3415
104738,-0.3487207591533661,0.20810113847255707,103.98981475830078,3436
104808,-0.20304711163043976,-0.05523478612303734,104.25829315185547,3452
104878,0.258170485496521,-0.29976755380630493,104.42069244384766,3468
104948,0.25867629051208496,-0.29293501377105713,104.47059631347656,3473
105018,0.42413896322250366,-0.2521995007991791,104.44640350341797,3478
105088,0.28125157952308655,-0.13485927879810333,104.40145111083984,3478
105158,0.41801920533180237,-0.3047656714916229,104.32597351074219,3478
105228,0.39998477697372437,-0.05672800540924072,104.23358917236328,3478
105298,0.3005830943584442,-0.020997805520892143,104.17033386230469,3478
105368,0.4153527319431305,0.19143185019493103,104.1128921508789,3483
105438,0.3345511257648468,0.12869131565093994,104.06978607177734,3483
105508,0.14271888136863708,0.04063781350851059,104.04756164550781,3468
105578,0.02749217115342617,0.09021439403295517,104.03551483154297,3473
105648,0.00659398315474391,0.03382471203804016,104.05590057373047,3462
105718,-0.05596564710140228,-0.1107151210308075,104.09110260009766,3457
105788,-0.18608276546001434,-0.16736124455928802,104.1407699584961,3457
105858,-0.20803005993366241,-0.16092944145202637,104.15383911132812,3462
105928,-0.2633136510848999,-0.18589776754379272,104.13885498046875,3457
105998,-0.3240959942340851,-0.2606015205383301,104.12380981445312,3457
106068,-0.2567303478717804,-0.4740103483200073,104.09903717041016,3462
106138,-0.3089630603790283,-0.3565671145915985,104.05585479736328,3457
106208,-0.2169492095708847,-0.4534066617488861,103.99774932861328,3457
106278,-0.2167024165391922,-0.428413987159729,103.93047332763672,3462
106348,-0.19009704887866974,-0.3502713143825531,103.87373352050781,3457
106418,-0.06181458756327629,-0.30595335364341736,103.85488891601562,3462
106488,-0.09578502178192139,-0.09017623960971832,103.7834701538086,3457
106558,0.014812206849455833,-0.04873157665133476,103.7525634765625,3468
106628,0.02355342172086239,-0.05391068011522293,103.70850372314453,3462
106698,-0.08428223431110382,0.29925647377967834,103.64844512939453,3457
106768,0.013864751905202866,0.014914468862116337,103.57299041748047,3457
106838,-0.06488142907619476,0.09896326810121536,103.49082946777344,3457
106908,-0.029902203008532524,-0.05192717909812927,103.42974853515625,3457
106978,0.091182179749012,-0.366039514541626,103.37908935546875,3462
107048,0.03607477992773056,-0.916038453578949,103.4021987915039,3457
107118,-0.008919994346797466,-3.599975347518921,103.40851593017578,3457
107188,0.042170096188783646,-5.28781270980835,103.41394805908203,3457
107258,-0.014123832806944847,-6.938565254211426,103.4212875366211,3457
107328,-0.10112596303224564,-7.291005611419678,103.4502944946289,3462
107398,0.7934650778770447,-6.936984539031982,103.53746032714844,3462
107468,0.3359772861003876,-5.931029319763184,103.46759796142578,3462
107538,0.046644095331430435,-3.476933717727661,103.45950317382812,3457
107608,-0.1308136135339737,-1.0444321632385254,103.43319702148438,3457
107678,-0.30174362659454346,1.9387925863265991,103.4749526977539,3457
107748,-0.32489079236984253,5.6585516929626465,103.38993072509766,3462
107818,-0.4004182815551758,7.57236385345459,103.20586395263672,3462
107888,-0.20723408460617065,7.352862358093262,102.97657012939453,3462
107958,-0.23475465178489685,6.701936721801758,102.82504272460938,3462
108028,-0.16411003470420837,5.271216869354248,102.75576782226562,3452
108098,-0.19838517904281616,3.907123327255249,102.74979400634766,3452
108168,-0.18900640308856964,2.417935848236084,102.74446868896484,3446
108238,-0.15785109996795654,1.1328558921813965,102.77310180664062,3452
108308,-0.16601145267486572,0.05866766721010208,102.75930786132812,3446
108378,-0.06224291771650314,-0.7601059675216675,102.7373275756836,3452
108448,-0.2101518213748932,-1.2664330005645752,102.73294830322266,3452
108518,-0.27838754653930664,-1.2913687229156494,102.84101104736328,3457
108588,-0.26958850026130676,-1.034491777420044,102.99081420898438,3457
108658,-0.3611810803413391,-0.8931633234024048,103.100341796875,3462
108728,-0.2253827005624771,-0.4588509500026703,103.1084213256836,3457
108798,-0.30148255825042725,-0.06046820059418678,103.05204772949219,3462
108868,-0.035621628165245056,-0.05659594386816025,102.94121551513672,3462
108938,0.050822582095861435,0.06459233164787292,102.8130874633789,3457
109008,0.19408121705055237,0.18790984153747559,102.71996307373047,3457
109078,0.16966615617275238,0.274334579706192,102.55389404296875,3462
109148,0.21189695596694946,0.27740463614463806,102.3591079711914,3457
109218,0.19190551340579987,0.039263561367988586,102.2164306640625,3457
109288,0.07431364804506302,-2.7595202922821045,102.08584594726562,3452
109358,0.1722584217786789,-4.607539653778076,102.00836181640625,3452
109428,0.11990440636873245,-6.162617206573486,101.9541244506836,3452
109498,0.1649785339832306,-6.843072891235352,101.86132049560547,3452
109568,0.1171126738190651,-6.501143932342529,101.70532989501953,3462
109638,0.28079289197921753,-5.940102577209473,101.67418670654297,3452
109708,0.11861827224493027,-4.561777591705322,101.91630554199219,3452
109778,-0.022889256477355957,-3.0876526832580566,102.30178833007812,3457
109848,-0.2978900372982025,-1.8704867362976074,102.68451690673828,3457
109918,-0.5216668844223022,-0.7465057969093323,102.99735260009766,3457
109988,-0.5796164274215698,-0.06283243745565414,103.20462036132812,3462
110058,-0.6041524410247803,0.46225976943969727,103.39081573486328,3462
110128,-0.5891626477241516,0.5803831219673157,103.54261016845703,3457
110198,-0.5214074850082397,0.522759199142456,103.63678741455078,3457
110268,-0.6132654547691345,0.4254588186740875,103.5728759765625,3462
110338,-0.35527512431144714,0.23392900824546814,103.51400756835938,3457
110408,-0.3625383973121643,0.24510714411735535,103.434326171875,3457
110478,-0.3483738899230957,0.12086955457925797,103.40641784667969,3452
110548,-0.21672731637954712,-0.007073319051414728,103.33594512939453,3452
110618,-0.10536228865385056,-0.17908872663974762,103.37854766845703,3452
110688,-0.01807507686316967,-0.5614191293716431,103.54624938964844,3452
110758,-0.19426196813583374,-0.4981088638305664,103.74405670166016,3457
110828,-0.26955991983413696,-0.5572497248649597,103.94175720214844,3452
110898,-0.192671000957489,-0.5453591346740723,104.04185485839844,3457
110968,-0.3308407664299011,-0.5531775951385498,104.1899642944336,3452
111038,-0.020633013918995857,-0.7803038358688354,104.27740478515625,3452
111108,-0.044265568256378174,-0.6861366033554077,104.29924774169922,3452
111178,0.09355050325393677,-0.7094595432281494,104.3776626586914,3452
111248,0.1263449490070343,-0.4717707931995392,104.51801300048828,3457
111318,0.0584145225584507,-0.3877094089984894,104.69491577148438,3452
111388,0.008273479528725147,-0.28288185596466064,104.85475158691406,3452
111458,0.026423973962664604,-0.2583475410938263,104.9451904296875,3452
111528,0.085106760263443,-0.5526329874992371,105.20390319824219,3452
111598,0.017909536138176918,-0.6034849882125854,105.65695190429688,3457
111668,-0.4235931932926178,-0.532535195350647,106.18223571777344,3457
111738,-0.719524085521698,-0.1364521086215973,106.59391021728516,3457
111808,-0.7438911199569702,-0.2568129003047943,106.73009490966797,3452
111878,-0.8237408399581909,-0.07448944449424744,106.47415924072266,3452
111948,-0.16666235029697418,-0.24598732590675354,105.91456604003906,3446
112018,0.2284415066242218,-0.17414715886116028,105.35446166992188,3452
112088,0.6280240416526794,-0.45620566606521606,104.82202911376953,3452
112158,1.0573614835739136,-0.5605005621910095,104.47323608398438,3452
112228,1.1323564052581787,-0.8576378226280212,104.15867614746094,3452
112298,0.9205185174942017,-0.8369783163070679,103.3565673828125,3446
112368,0.781995952129364,-0.6003551483154297,101.9533462524414,3446
112438,0.9995501041412354,-0.427042692899704,100.208984375,3452
112508,1.1114907264709473,-0.5513253211975098,98.7171630859375,3446
112578,1.1044590473175049,-0.5382411479949951,97.55084228515625,3452
112648,1.059280276298523,-0.5113180875778198,96.6784896850586,3446
112718,0.9157330393791199,-0.48934513330459595,96.04486846923828,3441
112788,0.7905091643333435,-0.1200612336397171,95.6623306274414,3436
112858,0.8837860226631165,-0.21970432996749878,95.4953842163086,3457
112928,0.6238757967948914,-0.3524385094642639,95.42713165283203,3462
112998,0.27463918924331665,-0.3731262683868408,95.11253356933594,3457
113068,0.4051581919193268,-0.10758613795042038,94.08660888671875,3452
113138,0.07545465975999832,0.041142240166664124,92.53722381591797,3446
113208,0.0019743074662983418,0.35159990191459656,90.78009033203125,3436
113278,1.0400854349136353,0.22829346358776093,89.15805053710938,3431
113348,1.159353494644165,-0.17624737322330475,87.96341705322266,3436
113418,1.4403148889541626,-0.18361420929431915,87.16800689697266,3446
113488,1.3817212581634521,-0.1608322709798813,86.75020599365234,3446
113558,0.7351728081703186,-0.22512587904930115,86.73975372314453,3457
113628,0.5617374181747437,-0.2889498770236969,86.74121856689453,3457
113698,0.305212140083313,-0.257183700799942,86.47084045410156,3457
113768,0.07069525867700577,-0.0735442265868187,86.0661392211914,3452
113838,0.2143770009279251,0.0398271381855011,85.60668182373047,3446
113908,0.529775083065033,-0.0605304017663002,85.15339660644531,3446
113978,0.5739173293113708,0.08170473575592041,84.82353973388672,3446
114048,0.6885309219360352,0.23875410854816437,84.68326568603516,3452
114118,0.775521457195282,0.24324148893356323,84.74246978759766,3446
114188,0.6518241763114929,0.7036132216453552,84.8819580078125,3452
114258,0.9471009969711304,0.23003099858760834,84.98506164550781,3452
114328,0.6766318678855896,0.35172080993652344,85.07774353027344,3452
114398,0.5071449279785156,0.4399910271167755,85.20828247070312,3446
114468,0.4209520220756531,0.39634275436401367,85.4258804321289,3446
114538,0.16092465817928314,0.5841744542121887,85.53448486328125,3441
114608,0.27087220549583435,0.7821807265281677,85.51358795166016,3446
114678,0.4120895564556122,0.17543858289718628,85.38872528076172,3452
114748,0.6133717894554138,0.14956720173358917,85.12275695800781,3452
114818,0.8711179494857788,-0.02228284254670143,84.64515686035156,3446
114888,0.8555033802986145,0.056436676532030106,84.01583862304688,3436
114958,0.5728952884674072,0.3222466707229614,82.9550552368164,3436
115028,0.457919180393219,0.3023863434791565,81.19540405273438,3446
115098,0.7173806428909302,-0.03754308074712753,78.81810760498047,3462
115168,1.4252164363861084,-0.1853867471218109,76.38880920410156,3462
115238,1.8654570579528809,-0.17581190168857574,74.58692169189453,3446
115308,1.6092520952224731,-0.010462739504873753,73.47559356689453,3452
115378,1.7374838590621948,-0.1585872918367386,72.89131927490234,3446
115448,1.371885895729065,-0.49188798666000366,72.7055892944336,3446
115518,1.1137611865997314,-0.41032642126083374,72.62245178222656,3446
115588,0.5423264503479004,-0.17693699896335602,72.45291900634766,3446
115658,0.7939857244491577,-0.35364657640457153,72.0059814453125,3446
115728,0.8762596845626831,-0.15030498802661896,71.65105438232422,3452
115798,0.5695669651031494,-0.047214921563863754,71.41078186035156,3452
115868,0.4655267894268036,-0.19525893032550812,71.20708465576172,3446
115938,0.5323612689971924,0.0031347516924142838,71.00802612304688,3452
116008,0.415839284658432,-0.27131834626197815,70.85086059570312,3452
116078,0.700182318687439,0.2296203076839447,71.23674774169922,3452
116148,0.5240668654441833,0.2709770202636719,72.56683349609375,3446
116218,-0.04535910487174988,0.24701623618602753,74.45291137695312,3446
116288,-0.6453092694282532,0.24466128647327423,76.3075942993164,3446
116358,-1.4136074781417847,-0.08544565737247467,77.90388488769531,3446
116428,-1.7254160642623901,-0.04049726575613022,78.944580078125,3446
116498,-1.7893354892730713,-0.38870108127593994,79.9351577758789,3446
116568,-1.472249150276184,-0.25893932580947876,80.60734558105469,3441
116638,-1.1151303052902222,-0.3724346160888672,81.77204895019531,3441
116708,-0.6762027740478516,-0.29269036650657654,83.02078247070312,3441
116778,-0.9262199997901917,0.2761841118335724,85.37725067138672,3441
116848,-1.0836906433105469,0.11332783848047256,87.84719848632812,3457
116918,-1.2493586540222168,-0.19270019233226776,90.40750122070312,3452
116988,-1.5261167287826538,-0.15737289190292358,92.80719757080078,3452
117058,-1.377561092376709,-0.4766015112400055,94.36395263671875,3446
117128,-1.820980191230774,-0.2855687737464905,95.67940521240234,3441
117198,-1.7582178115844727,0.44115397334098816,96.61909484863281,3446
117268,-1.6594356298446655,1.1396539211273193,97.2677993774414,3446
117338,-1.3561944961547852,2.1972954273223877,97.63482666015625,3452
117408,-0.9122322201728821,3.3202269077301025,97.88980865478516,3452
117478,-0.5134924650192261,5.617462635040283,98.2565689086914,3446
117548,-0.29245561361312866,7.125139236450195,98.74491119384766,3446
117618,-0.0793231651186943,6.70261812210083,99.11695098876953,3452
117688,-0.1017148569226265,5.940917015075684,99.4995346069336,3441
117758,0.03311493620276451,4.485414028167725,99.7043228149414,3441
117828,-0.03843739628791809,3.2986130714416504,99.90487670898438,3441
117898,0.008003568276762962,2.295754909515381,99.99642944335938,3436
117968,0.123707115650177,1.1963802576065063,100.0719223022461,3436
118038,-0.15721896290779114,0.6367512941360474,100.1435775756836,3436
118108,-0.19583246111869812,0.07502559572458267,100.08088684082031,3436
118178,-0.17933931946754456,-0.38474664092063904,100.01502990722656,3446
118248,-0.07556991279125214,-0.6132768988609314,99.92235565185547,3446
118318,-0.04267733916640282,-0.48741012811660767,99.8346939086914,3441
118388,-0.03594295307993889,-0.34719181060791016,99.71483612060547,3446
118458,0.05487219616770744,-0.2130240648984909,99.6434555053711,3446
118528,0.055911675095558167,0.08952077478170395,99.63623809814453,3446
118598,-0.011400184594094753,0.13170211017131805,99.61710357666016,3446
118668,-0.07811164110898972,0.11995559185743332,99.62681579589844,3446
118738,-0.20217859745025635,-0.056598011404275894,99.6794204711914,3446
118808,-0.25891730189323425,-2.7039737701416016,99.75812530517578,3446
118878,-0.1263974905014038,-4.840753078460693,99.891357421875,3441
118948,-0.18272726237773895,-6.6189188957214355,100.0396728515625,3436
119018,-0.19981296360492706,-6.888010501861572,100.12725830078125,3436
119088,-0.2745174169540405,-6.378885269165039,100.22407531738281,3441
119158,-0.19834303855895996,-4.19621467590332,100.20159149169922,3436
119228,-0.3265826106071472,-1.0644415616989136,100.10829162597656,3441
119298,-0.29287782311439514,1.7300125360488892,100.0947265625,3446
119368,-0.2529236376285553,5.655294418334961,100.017333984375,3441
119438,-0.31093519926071167,7.253723621368408,99.93736267089844,3446
119508,-0.12807109951972961,7.090011119842529,99.83409118652344,3446
119578,-0.09630453586578369,6.230467796325684,99.74115753173828,3441
119648,-0.06474468111991882,5.040895462036133,99.70867156982422,3436
119718,-0.17497266829013824,3.0343685150146484,99.73596954345703,3441
119788,-0.07324036955833435,-2.0399811267852783,99.83503723144531,3436
119858,0.06573094427585602,-4.949887752532959,99.99329376220703,3431
119928,-0.08949635922908783,-6.741732120513916,100.09666442871094,3431
119998,-0.05366431176662445,-7.444115161895752,100.24332427978516,3436
120068,-0.20781899988651276,-7.0763654708862305,100.3479232788086,3425
120138,-0.17077118158340454,-6.003350734710693,100.39178466796875,3436
120208,-0.07471924275159836,-4.45621919631958,100.36576843261719,3441
120278,-0.14160051941871643,-2.951777935028076,100.3398666381836,3441
120348,-0.2648959457874298,-1.2393951416015625,100.48236846923828,3436
120418,-0.22396650910377502,1.8766088485717773,100.63558197021484,3446
120488,-0.31693291664123535,6.621085166931152,100.75626373291016,3441
120558,-0.4549327790737152,8.740283966064453,100.82735443115234,3431
120628,-0.24255768954753876,8.855178833007812,100.83622741699219,3446
120698,-0.23953746259212494,7.91598653793335,100.82141876220703,3441
120768,-0.11548873782157898,6.285338878631592,100.8193359375,3436
120838,-0.05947759002447128,4.5736775398254395,100.8833999633789,3431
120908,-0.025471042841672897,2.8912622928619385,100.96757507324219,3425
120978,-0.06974800676107407,1.5854041576385498,101.04183197021484,3425
121048,0.035779714584350586,0.34061768651008606,101.09069061279297,3425
121118,-0.10771995037794113,-0.3775925934314728,101.1005630493164,3436
121188,-0.041553523391485214,-0.9624860882759094,101.0827407836914,3441
121258,0.019017072394490242,-1.058613657951355,101.02783966064453,3441
121328,0.17643554508686066,-1.1402405500411987,100.96532440185547,3441
121398,-0.031893543899059296,-0.7765630483627319,100.93771362304688,3446
121468,-0.09671352803707123,-0.2965887188911438,100.82549285888672,3446
121538,0.049553949385881424,-0.24528107047080994,100.701171875,3446
121608,-0.14364318549633026,0.052272722125053406,100.57144927978516,3441
121678,-0.10081014037132263,0.3535899817943573,100.43743896484375,3441
121748,-0.13004477322101593,0.18558141589164734,100.29570007324219,3446
121818,-0.04907790198922157,0.39665594696998596,100.22176361083984,3441
121888,0.00534252030774951,0.3525985777378082,100.20234680175781,3436
121958,0.05293450504541397,0.2567861080169678,100.20573425292969,3436
122028,0.14714717864990234,0.42850732803344727,100.23856353759766,3436
122098,0.056967843323946,0.35360607504844666,100.26213073730469,3436
122168,0.14885255694389343,0.46938541531562805,100.29497528076172,3436
122238,0.0455118790268898,0.3689989745616913,100.31668853759766,3436
122308,0.11247874796390533,0.45413118600845337,100.37510681152344,3441
122378,0.06701306253671646,0.28559964895248413,100.42645263671875,3441
122448,0.004597135819494724,0.31087440252304077,100.42311096191406,3441
122518,-0.011492771096527576,0.19255347549915314,100.39405059814453,3441
122588,-0.05354916676878929,0.1867680698633194,100.3456802368164,3441
122658,0.029411379247903824,0.1718830019235611,100.31004333496094,3431
122728,-0.030826622620224953,0.25829949975013733,100.3321304321289,3441
122798,0.04625320807099342,0.1834488958120346,100.38507080078125,3446
122868,0.025122126564383507,0.27306225895881653,100.43843078613281,3446
122938,0.05660927668213844,0.3046751022338867,100.4665298461914,3425
123008,-0.03389160335063934,0.10046988725662231,100.5164566040039,3420
123078,-0.12452976405620575,-2.626277446746826,100.54789733886719,3436
123148,0.05839712172746658,-5.399450778961182,100.5344009399414,3431
123218,0.03779364004731178,-6.794841289520264,100.4970474243164,3431
123288,-0.020954744890332222,-6.873012065887451,100.37252807617188,3436
123358,-0.08262859284877777,-6.474490642547607,100.22185516357422,3436
123428,0.019152255728840828,-4.93778657913208,100.05553436279297,3441
123498,0.009445684030652046,-1.3526434898376465,99.94021606445312,3441
123568,0.05369745194911957,3.6646311283111572,99.85244750976562,3436
123638,-0.09525252878665924,6.26306676864624,99.81617736816406,3436
123708,0.031692683696746826,7.062382221221924,99.79691314697266,3431
123778,-0.04644578695297241,6.762635231018066,99.81947326660156,3441
123848,0.04318999499082565,5.580052852630615,99.85302734375,3425
123918,-0.02037767320871353,4.2591633796691895,99.89146423339844,3431
123988,-0.064376600086689,2.8650221824645996,99.98126983642578,3415
124058,-0.15857289731502533,1.5824484825134277,100.07820129394531,3431
124128,-0.11989269405603409,0.4976136088371277,100.11089324951172,3431
124198,-0.14351457357406616,-0.8839465975761414,100.12491607666016,3436
124268,-0.045144133269786835,-4.4112749099731445,100.08316802978516,3436
124338,0.19482176005840302,-6.38822078704834,100.08226776123047,3431
124408,-0.11141625046730042,-7.561471462249756,100.04039764404297,3441
124478,0.049778711050748825,-7.925220012664795,100.03219604492188,3441
124548,1.1998322010040283,-7.331872940063477,100.11933135986328,3441
124618,1.2064290046691895,-6.4420976638793945,100.21833038330078,3436
124688,-0.15193752944469452,-4.1864166259765625,100.41023254394531,3431
124758,-0.4130830764770508,-1.4704654216766357,100.52755737304688,3431
124828,-0.8012534379959106,1.2320362329483032,100.5556411743164,3431
124898,-0.7236954569816589,3.7018351554870605,100.54821014404297,3431
124968,-0.8105735182762146,6.9325690269470215,100.56078338623047,3431
125038,-0.6616190075874329,7.848239421844482,100.60282897949219,3441
125108,-0.32289668917655945,7.3867363929748535,100.57874298095703,3441
125178,-0.3070532977581024,6.383371829986572,100.56672668457031,3441
125248,-0.04876100271940231,4.594053745269775,100.54248809814453,3441
125318,-0.004998016636818647,2.1418845653533936,100.56753540039062,3431
125388,0.33481329679489136,-3.0071802139282227,100.6654052734375,3431
125458,0.5884736776351929,-6.311929225921631,100.74468231201172,3431
125528,0.3885449469089508,-7.953327178955078,100.68638610839844,3425
125598,0.41282379627227783,-8.218997955322266,100.5901107788086,3425
125668,0.26507648825645447,-7.034839153289795,100.5120620727539,3436
125738,0.1249275654554367,-4.739404201507568,100.43997192382812,3441
125808,0.0009337376686744392,-1.651994228363037,100.3062973022461,3436
125878,0.0755191445350647,3.2546873092651367,100.14417266845703,3431
125948,-0.1712191104888916,6.119401931762695,100.0480728149414,3431
126018,-0.06411483138799667,7.039386749267578,99.98577880859375,3436
126088,-0.11947866529226303,7.049407958984375,99.92545318603516,3436
126158,0.13228751718997955,5.83380126953125,99.88785552978516,3436
126228,-0.03157073259353638,4.7523322105407715,99.98709106445312,3425
126298,-0.021732844412326813,3.236762285232544,100.1352767944336,3425
126368,-0.08559674769639969,2.158540964126587,100.23043823242188,3425
126438,-0.03179818391799927,0.9020683765411377,100.33267974853516,3425
126508,0.017537333071231842,0.02915690280497074,100.38885498046875,3431
126578,0.12428030371665955,-0.5110139846801758,100.417236328125,3425
126648,0.10932564735412598,-0.7611374855041504,100.43507385253906,3431
126718,0.1971418708562851,-0.858335554599762,100.46826934814453,3431
126788,0.2204635888338089,-0.8502925634384155,100.52338409423828,3436
126858,0.1476181149482727,-0.6638069748878479,100.6101303100586,3441
126928,0.16484512388706207,-0.6712730526924133,100.76143646240234,3436
126998,-0.09336470067501068,-0.20531527698040009,100.87545013427734,3436
127068,-0.0996599793434143,0.003079158952459693,100.88995361328125,3436
127138,-0.10848724097013474,0.09976048022508621,100.91502380371094,3431
127208,-0.11490526795387268,0.3573378324508667,100.94872283935547,3431
127278,-0.14768730103969574,0.4017307162284851,100.89007568359375,3431
127348,-0.15250344574451447,0.39302191138267517,100.91415405273438,3431
127418,-0.17349281907081604,0.5157861709594727,100.95458221435547,3431
127488,-0.13298088312149048,0.3591045141220093,101.05476379394531,3431
127558,-0.22559404373168945,0.5142955780029297,101.09447479248047,3425
127628,-0.21123120188713074,0.48238372802734375,101.12101745605469,3431
127698,-0.16023491322994232,0.5059859156608582,101.10901641845703,3436
127768,-0.020074116066098213,0.2720176875591278,101.14910888671875,3431
127838,0.012785033322870731,0.12908470630645752,101.28480529785156,3431
127908,-0.15709759294986725,0.315112829208374,101.39655303955078,3431
127978,-0.09558963030576706,0.04780207946896553,101.50415802001953,3436
128048,-0.10967408120632172,0.10971271991729736,101.58805084228516,3436
128118,-0.12230075895786285,0.22617954015731812,101.6557388305664,3431
128188,-0.16852736473083496,0.34358352422714233,101.68067932128906,3436
128258,-0.23107115924358368,0.4778377115726471,101.68195343017578,3436
128328,-0.3239578306674957,0.3992915153503418,101.67558288574219,3436
128398,-0.2991817593574524,0.2868786156177521,101.67186737060547,3436
128468,-0.28849706053733826,0.17097634077072144,101.66541290283203,3436
128538,-0.2664758265018463,0.28272545337677,101.63365936279297,3431
128608,-0.06404352188110352,0.12699739634990692,101.5758056640625,3431
128678,-0.18558353185653687,0.17592120170593262,101.50782775878906,3425
128748,-0.14816944301128387,0.14715828001499176,101.38632202148438,3431
128818,-0.17636793851852417,0.2926158607006073,101.26776123046875,3436
128888,-0.07537302374839783,0.19338029623031616,101.14460754394531,3436
128958,-0.0025946348905563354,0.06679720431566238,101.02922058105469,3436
129028,0.005104369018226862,0.06434392929077148,100.95513916015625,3431
129098,0.25520601868629456,-0.08137711137533188,101.25492858886719,3431
129168,0.28873148560523987,-0.10191810876131058,102.2972640991211,3436
129238,0.19740404188632965,-0.05305540934205055,104.04469299316406,3431
129308,0.19461192190647125,-0.10956587642431259,106.11421203613281,3431
129378,0.21272510290145874,-0.1905279904603958,107.99311065673828,3436
129448,0.08155103772878647,-0.03579064458608627,109.3692855834961,3441
129518,0.08077816665172577,-0.21322409808635712,110.3085708618164,3436
129588,0.027727803215384483,-0.18376611173152924,110.93445587158203,3436
129658,0.09795308113098145,-0.03862161934375763,111.33744049072266,3431
129728,-0.21252258121967316,0.008433365263044834,111.56855773925781,3431
129798,-0.16033945977687836,0.18551915884017944,111.7338638305664,3431
129868,-0.17809392511844635,0.17187291383743286,111.82582092285156,3431
129938,-0.007368138059973717,0.09031084924936295,111.8450698852539,3431
130008,-0.09537605941295624,-0.24043817818164825,111.8814926147461,3425
130078,0.21698519587516785,-0.1461908221244812,111.92206573486328,3431
130148,0.2299027144908905,-0.06687654554843903,111.90613555908203,3431
130218,0.17095938324928284,-0.016577566042542458,111.9996566772461,3431
130288,0.21847739815711975,-0.0852142721414566,112.73332977294922,3431
130358,0.03678717836737633,-0.051508184522390366,114.27478790283203,3431
130428,0.2131442427635193,-0.003322320757433772,116.50498962402344,3431
130498,-0.436903178691864,-0.06916888803243637,118.97537231445312,3436
130568,-0.7156955599784851,-0.058362577110528946,121.07635498046875,3441
130638,-0.5779839754104614,-0.009073655121028423,122.5780258178711,3436
130708,-0.5955543518066406,0.1297280341386795,123.66324615478516,3436
130778,-0.22566522657871246,-0.06621291488409042,124.45061492919922,3431
130848,-0.367768257856369,-0.8525729179382324,124.98341369628906,3431
130918,0.0731041207909584,-4.763427734375,125.36003112792969,3431
130988,-0.4468929171562195,-6.042178153991699,125.41401672363281,3425
131058,-0.5786232352256775,-6.665652275085449,125.4261703491211,3420
131128,-0.3687588572502136,-6.421724319458008,125.38296508789062,3425
131198,-0.38368818163871765,-5.3348708152771,125.50498962402344,3431
131268,-0.18431876599788666,-4.390034198760986,125.67926788330078,3431
131338,-0.3356366753578186,-2.923393487930298,125.87931060791016,3425
131408,-0.35101237893104553,-1.6050434112548828,125.96807861328125,3431
131478,-0.2287968099117279,-0.7943241596221924,125.99201202392578,3425
131548,-0.008323890157043934,-0.2449501007795334,125.90626525878906,3436
131618,0.5110476613044739,-0.07372060418128967,125.68031311035156,3431
131688,0.8712977766990662,0.050415925681591034,125.4250259399414,3431
131758,0.9915066957473755,-0.1920655220746994,125.18980407714844,3431
131828,1.2185444831848145,-0.3661833107471466,125.0184097290039,3425
131898,1.1325565576553345,-0.5252130031585693,124.86756134033203,3425
131968,1.1578367948532104,-0.8004809617996216,124.71214294433594,3425
132038,0.9142666459083557,-0.9714638590812683,124.53387451171875,3431
132108,0.7877717018127441,-0.720617949962616,124.3779296875,3431
132178,0.8048598170280457,-0.9023463726043701,124.2475814819336,3431
132248,0.6940921545028687,-0.6934943199157715,124.19060516357422,3431
132318,0.5920975804328918,-0.6506503224372864,124.20597076416016,3425
132388,0.4318276047706604,-0.5706773996353149,124.26399993896484,3425
132458,0.33466482162475586,-0.5830730199813843,124.3878173828125,3420
132528,0.18915395438671112,-0.4455479085445404,124.4941635131836,3425
132598,0.07235461473464966,-0.47833552956581116,124.53380584716797,3425
132668,0.013076459988951683,-0.39956215023994446,124.52106475830078,3431
132738,0.12853702902793884,-0.4826885461807251,124.42542266845703,3431
132808,0.13778705894947052,-0.36575034260749817,124.28530883789062,3431
132878,0.16202609241008759,-0.3621397614479065,124.16220092773438,3425
132948,0.23423364758491516,-0.43364834785461426,123.99687194824219,3420
133018,0.39280667901039124,-0.5574790835380554,123.81428527832031,3425
133088,0.2757026255130768,-0.39625194668769836,123.69339752197266,3425
133158,0.3437837064266205,-0.4004318118095398,123.6454086303711,3431
133228,0.28413474559783936,-0.456347793340683,123.60887908935547,3431
133298,0.28967607021331787,-0.41422775387763977,123.63568115234375,3425
133368,0.20953701436519623,-0.4844312071800232,123.65754699707031,3431
133438,0.025166673585772514,-0.21117331087589264,123.67138671875,3425
133508,-0.05938798561692238,-0.25213000178337097,123.7246322631836,3425
133578,-0.06353890895843506,-0.2566707134246826,123.88086700439453,3425
133648,-0.1702878326177597,-0.10603482276201248,123.99541473388672,3425
133718,-0.291944295167923,-0.09003939479589462,124.13119506835938,3431
133788,-0.2990381121635437,-0.18740133941173553,124.28083038330078,3425
133858,-0.48356497287750244,0.004605320282280445,124.48422241210938,3425
133928,-0.47886133193969727,-0.1497315615415573,124.62155151367188,3420
133998,-0.4651115834712982,-0.07371891289949417,124.70390319824219,3425
134068,-0.3957681357860565,-0.061199452728033066,124.79792785644531,3425
134138,-0.2492149919271469,-0.08536802977323532,124.84642791748047,3415
